state,state_abbr,city,city_name,county,county_name,latitude,longitud
ALABAMA,AL,10,ABBEVILLE,67,HENRY,31.57184,-85.25049
ALABAMA,AL,50,ALBERTVILLE,95,MARSHALL,34.26783,-86.20878
ALABAMA,AL,60,ALEXANDER CITY,123,TALLAPOOSA,32.94401,-85.95385
ALABAMA,AL,70,ALICEVILLE,107,PICKENS,33.12957,-88.15142
ALABAMA,AL,90,ANDALUSIA,39,COVINGTON,31.30833,-86.39222
ALABAMA,AL,96,ANDERSON,77,LAUDERDALE,34.92842,-87.26641
ALABAMA,AL,100,ANNISTON,15,CALHOUN,33.65983,-85.83163
ALABAMA,AL,101,ANNISTON ARMY DEPOT,15,CALHOUN,33.65231,-85.96214
ALABAMA,AL,103,ANSLEY,109,PIKE,31.88626,-86.11579
ALABAMA,AL,110,ARAB,95,MARSHALL,34.31815,-86.49582
ALABAMA,AL,120,ARDMORE,83,LIMESTONE,34.97872,-86.88273
ALABAMA,AL,127,ARGO,73,JEFFERSON,33.6885,-86.5022
ALABAMA,AL,130,ARITON,45,DALE,31.60017,-85.71883
ALABAMA,AL,134,ARLEY,133,WINSTON,34.07899,-87.21223
ALABAMA,AL,135,ARLINGTON,131,WILCOX,32.0568,-87.5879
ALABAMA,AL,137,ARMSTRONG,87,MACON,32.2396,-85.6577
ALABAMA,AL,140,ASHFORD,69,HOUSTON,31.18296,-85.23632
ALABAMA,AL,150,ASHLAND,27,CLAY,33.27373,-85.83607
ALABAMA,AL,160,ASHVILLE,115,ST. CLAIR,33.83704,-86.25442
ALABAMA,AL,170,ATHENS,83,LIMESTONE,34.80243,-86.97219
ALABAMA,AL,180,ATMORE,53,ESCAMBIA,31.02379,-87.49387
ALABAMA,AL,190,ATTALLA,55,ETOWAH,34.02176,-86.08859
ALABAMA,AL,200,AUBURN,81,LEE,32.60986,-85.48078
ALABAMA,AL,220,AUTAUGAVILLE,1,AUTAUGA,32.43402,-86.6547
ALABAMA,AL,221,AVON,69,HOUSTON,31.18934,-85.28604
ALABAMA,AL,223,AXIS,97,MOBILE,30.92991,-88.02722
ALABAMA,AL,225,BABBIE,39,COVINGTON,31.27961,-86.32551
ALABAMA,AL,224,BAILEYTON,43,CULLMAN,34.26232,-86.61277
ALABAMA,AL,227,BAKER HILL,5,BARBOUR,31.78127,-85.30216
ALABAMA,AL,230,BANKS,109,PIKE,31.81516,-85.843
ALABAMA,AL,234,BANKSTON,57,FAYETTE,33.6715,-87.6714
ALABAMA,AL,236,BARLOW BEND,25,CLARKE,31.45461,-87.63471
ALABAMA,AL,240,BAY MINETTE,3,BALDWIN,30.88296,-87.77305
ALABAMA,AL,260,BAY VIEW,73,JEFFERSON,33.55872,-86.97361
ALABAMA,AL,250,BAYOU LA BATRE,97,MOBILE,30.40352,-88.24852
ALABAMA,AL,270,BEAR CREEK,93,MARION,34.27482,-87.70058
ALABAMA,AL,280,BEATRICE,99,MONROE,31.73349,-87.20471
ALABAMA,AL,290,BEAVERTON,75,LAMAR,33.93122,-88.02031
ALABAMA,AL,294,BELK,57,FAYETTE,33.64761,-87.93141
ALABAMA,AL,295,BELLAMY,119,SUMTER,32.44903,-88.13363
ALABAMA,AL,297,BELLE MINA,83,LIMESTONE,34.65676,-86.87917
ALABAMA,AL,300,BELLWOOD,61,GENEVA,31.17323,-85.79327
ALABAMA,AL,315,BENTON,85,LOWNDES,32.30681,-86.81776
ALABAMA,AL,2715,BERLIN,47,DALLAS,32.28764,-86.98582
ALABAMA,AL,320,BERRY,57,FAYETTE,33.65983,-87.60001
ALABAMA,AL,330,BESSEMER,73,JEFFERSON,33.40178,-86.95444
ALABAMA,AL,1955,BESSIE,73,JEFFERSON,33.64983,-87.03305
ALABAMA,AL,335,BEXAR,93,MARION,34.19094,-88.14726
ALABAMA,AL,337,BIGBEE,129,WASHINGTON,31.13629,-87.94416
ALABAMA,AL,340,BILLINGSLEY,1,AUTAUGA,32.65957,-86.71776
ALABAMA,AL,350,BIRMINGHAM,73,JEFFERSON,33.52066,-86.80249
ALABAMA,AL,360,BLACK,61,GENEVA,31.00935,-85.74438
ALABAMA,AL,365,BLADON SPRINGS,23,CHOCTAW,31.73766,-88.1964
ALABAMA,AL,370,BLOUNTSVILLE,9,BLOUNT,34.08149,-86.5911
ALABAMA,AL,380,BLUE MOUNTAIN,15,CALHOUN,33.6845,-85.8427
ALABAMA,AL,390,BLUE SPRINGS,5,BARBOUR,31.66128,-85.50744
ALABAMA,AL,395,BLUFF PARK,73,JEFFERSON,33.4015,-86.8561
ALABAMA,AL,400,BOAZ,55,ETOWAH,34.20065,-86.16637
ALABAMA,AL,410,BOLIGEE,63,GREENE,32.75597,-88.02891
ALABAMA,AL,412,BOLINGER,23,CHOCTAW,31.77849,-88.33113
ALABAMA,AL,411,BOLLING,13,BUTLER,31.72543,-86.70581
ALABAMA,AL,420,BON AIR,121,TALLADEGA,33.26372,-86.33553
ALABAMA,AL,423,BON SECOUR,3,BALDWIN,30.23513,-87.84459
ALABAMA,AL,425,BOOTH,1,AUTAUGA,32.50041,-86.57192
ALABAMA,AL,430,BORDEN SPRINGS,29,CLEBURNE,33.91371,-85.46579
ALABAMA,AL,433,BOYKIN,131,WILCOX,32.07792,-87.28138
ALABAMA,AL,435,BOYLSTON,101,MONTGOMERY,32.42847,-86.27941
ALABAMA,AL,440,BRADFORD,37,COOSA,32.99484,-86.08497
ALABAMA,AL,445,BRANCHVILLE,115,ST. CLAIR,33.7,-86.4
ALABAMA,AL,450,BRANTLEY,41,CRENSHAW,31.58238,-86.25718
ALABAMA,AL,455,BREMEN,43,CULLMAN,33.99455,-86.97
ALABAMA,AL,460,BRENT,7,BIBB,32.93735,-87.16472
ALABAMA,AL,470,BREWTON,53,ESCAMBIA,31.10518,-87.07219
ALABAMA,AL,480,BRIDGEPORT,71,JACKSON,34.94758,-85.71442
ALABAMA,AL,482,BRIERFIELD,7,BIBB,33.04526,-86.92786
ALABAMA,AL,490,BRIGHTON,73,JEFFERSON,33.43428,-86.94721
ALABAMA,AL,492,BRILLIANT,93,MARION,34.02538,-87.75836
ALABAMA,AL,498,BROOKLEY AIR FORCE BASE (HISTORICAL),97,MOBILE,30.62917,-88.06806
ALABAMA,AL,502,BROOKLYN,35,CONECUH,31.26267,-86.77107
ALABAMA,AL,500,BROOKSIDE,73,JEFFERSON,33.63788,-86.91666
ALABAMA,AL,505,BROOKWOOD,125,TUSCALOOSA,33.25567,-87.32083
ALABAMA,AL,507,BROWNS,47,DALLAS,32.4368,-87.36611
ALABAMA,AL,508,BROWNSBORO,89,MADISON,34.74926,-86.44304
ALABAMA,AL,506,BROWNVILLE,73,JEFFERSON,33.44094,-86.91194
ALABAMA,AL,510,BRUNDIDGE,109,PIKE,31.72016,-85.81606
ALABAMA,AL,515,BRYANT,71,JACKSON,34.94369,-85.63219
ALABAMA,AL,517,BUCKS,97,MOBILE,31.01046,-88.02417
ALABAMA,AL,518,BUHL,125,TUSCALOOSA,33.25706,-87.75279
ALABAMA,AL,522,BURKVILLE,85,LOWNDES,32.32819,-86.53692
ALABAMA,AL,519,BURNT CORN,99,MONROE,31.55349,-87.16026
ALABAMA,AL,521,BURNWELL,127,WALKER,33.70788,-87.0875
ALABAMA,AL,520,BUTLER,23,CHOCTAW,32.08959,-88.22197
ALABAMA,AL,525,BYNUM,15,CALHOUN,33.61316,-85.96108
ALABAMA,AL,529,CAHABA HEIGHTS,73,JEFFERSON,33.464,-86.73193
ALABAMA,AL,530,CALERA,117,SHELBY,33.1029,-86.7536
ALABAMA,AL,534,CALHOUN,85,LOWNDES,32.05848,-86.55109
ALABAMA,AL,538,CALVERT,129,WASHINGTON,31.15517,-88.01
ALABAMA,AL,540,CAMDEN,131,WILCOX,31.99098,-87.29055
ALABAMA,AL,550,CAMP HILL,123,TALLAPOOSA,32.80041,-85.65357
ALABAMA,AL,556,CAMP SIBERT,55,ETOWAH,,
ALABAMA,AL,545,CAMPBELL,25,CLARKE,31.9235,-87.9811
ALABAMA,AL,558,CAPSHAW,83,LIMESTONE,34.77315,-86.79278
ALABAMA,AL,560,CARBON HILL,127,WALKER,33.89177,-87.52612
ALABAMA,AL,570,CARDIFF,73,JEFFERSON,33.64566,-86.93361
ALABAMA,AL,575,CARLTON,25,CLARKE,31.34322,-87.84555
ALABAMA,AL,576,CAROLINA,39,COVINGTON,31.24073,-86.52774
ALABAMA,AL,580,CARROLLTON,107,PICKENS,33.26169,-88.09503
ALABAMA,AL,590,CARRVILLE,123,TALLAPOOSA,32.54986,-85.86996
ALABAMA,AL,600,CASTLEBERRY,35,CONECUH,31.29906,-87.02247
ALABAMA,AL,603,CATHERINE,131,WILCOX,32.18459,-87.46944
ALABAMA,AL,608,CECIL,101,MONTGOMERY,32.30264,-86.00857
ALABAMA,AL,610,CEDAR BLUFF,19,CHEROKEE,34.22009,-85.60774
ALABAMA,AL,615,CENTER POINT,73,JEFFERSON,33.64566,-86.6836
ALABAMA,AL,618,CENTRAL,51,ELMORE,32.47986,-86.36192
ALABAMA,AL,630,CENTRE,19,CHEROKEE,34.15204,-85.67885
ALABAMA,AL,620,CENTREVILLE,7,BIBB,32.9462,-87.11669
ALABAMA,AL,636,CHALKVILLE,73,JEFFERSON,33.65316,-86.64777
ALABAMA,AL,638,CHANCE,25,CLARKE,31.7488,-87.5319
ALABAMA,AL,637,CHANCELLOR,61,GENEVA,31.18156,-85.87716
ALABAMA,AL,640,CHAPMAN,13,BUTLER,31.67127,-86.7122
ALABAMA,AL,644,CHASE,89,MADISON,34.78342,-86.54666
ALABAMA,AL,650,CHATOM,129,WASHINGTON,31.46517,-88.25446
ALABAMA,AL,655,CHELSEA,117,SHELBY,33.34011,-86.63026
ALABAMA,AL,660,CHEROKEE,33,COLBERT,34.75703,-87.97281
ALABAMA,AL,670,CHICKASAW,97,MOBILE,30.7638,-88.07472
ALABAMA,AL,680,CHILDERSBURG,121,TALLADEGA,33.27817,-86.35498
ALABAMA,AL,683,CHOCCOLOCCO,15,CALHOUN,33.65927,-85.70357
ALABAMA,AL,684,CHOCTAW CITY,23,CHOCTAW,32.20903,-88.09419
ALABAMA,AL,685,CHUNCHULA,97,MOBILE,30.92185,-88.20056
ALABAMA,AL,690,CITRONELLE,97,MOBILE,31.09073,-88.22806
ALABAMA,AL,700,CLANTON,21,CHILTON,32.83874,-86.62943
ALABAMA,AL,705,CLARKE,127,WALKER,31.54072,-87.79111
ALABAMA,AL,708,CLAY,73,JEFFERSON,33.7026,-86.5997
ALABAMA,AL,712,CLAYHATCHEE,45,DALE,31.23573,-85.72271
ALABAMA,AL,710,CLAYTON,5,BARBOUR,31.87822,-85.44966
ALABAMA,AL,715,CLEVELAND,9,BLOUNT,33.99093,-86.57749
ALABAMA,AL,717,CLINTON,63,GREENE,32.91374,-87.99252
ALABAMA,AL,720,CLIO,5,BARBOUR,31.70878,-85.6105
ALABAMA,AL,719,CLOPTON,45,DALE,31.6085,-85.42994
ALABAMA,AL,721,CLOVERDALE,77,LAUDERDALE,34.9387,-87.7714
ALABAMA,AL,724,COALBURG,73,JEFFERSON,33.59372,-86.85721
ALABAMA,AL,718,COALING,125,TUSCALOOSA,33.15901,-87.34083
ALABAMA,AL,722,COATOPA,119,SUMTER,32.48514,-88.06946
ALABAMA,AL,723,CODEN,97,MOBILE,30.38298,-88.23834
ALABAMA,AL,730,COFFEE SPRINGS,61,GENEVA,31.1664,-85.91031
ALABAMA,AL,740,COFFEEVILLE,25,CLARKE,31.75794,-88.08973
ALABAMA,AL,743,COKER,125,TUSCALOOSA,33.24595,-87.68779
ALABAMA,AL,745,COLDWATER,15,CALHOUN,33.62705,-85.88997
ALABAMA,AL,750,COLLINSVILLE,49,DEKALB,34.26359,-85.86022
ALABAMA,AL,760,COLUMBIA,69,HOUSTON,31.29271,-85.11267
ALABAMA,AL,770,COLUMBIANA,117,SHELBY,33.17817,-86.60721
ALABAMA,AL,774,COMER,5,BARBOUR,32.0329,-85.3833
ALABAMA,AL,773,COOKS SPRINGS,115,ST. CLAIR,33.5901,-86.39443
ALABAMA,AL,776,COOSADA,51,ELMORE,32.49791,-86.33136
ALABAMA,AL,780,CORDOVA,127,WALKER,33.75983,-87.18333
ALABAMA,AL,787,COTTONDALE,125,TUSCALOOSA,33.18956,-87.45167
ALABAMA,AL,788,COTTONTON,113,RUSSELL,32.14682,-85.07382
ALABAMA,AL,790,COTTONWOOD,69,HOUSTON,31.04879,-85.30493
ALABAMA,AL,798,COUNTY LINE,9,BLOUNT,33.82149,-86.7186
ALABAMA,AL,800,COURTLAND,79,LAWRENCE,34.66898,-87.30946
ALABAMA,AL,802,COWARTS,69,HOUSTON,31.20018,-85.30465
ALABAMA,AL,803,COY,131,WILCOX,31.89487,-87.46277
ALABAMA,AL,804,CRAGFORD,27,CLAY,33.25095,-85.67246
ALABAMA,AL,805,CRAIG AIR FORCE BASE (HISTORICAL),47,DALLAS,32.34607,-86.98481
ALABAMA,AL,806,CRANE HILL,43,CULLMAN,34.09399,-87.06306
ALABAMA,AL,807,CREOLA,97,MOBILE,30.89185,-88.03972
ALABAMA,AL,808,CROMWELL,23,CHOCTAW,32.22875,-88.27447
ALABAMA,AL,809,CROPWELL,115,ST. CLAIR,33.55233,-86.26914
ALABAMA,AL,810,CROSSVILLE,49,DEKALB,34.28759,-85.99414
ALABAMA,AL,820,CUBA,119,SUMTER,32.42877,-88.37679
ALABAMA,AL,830,CULLMAN,43,CULLMAN,34.17482,-86.84361
ALABAMA,AL,835,CUSSETA,17,CHAMBERS,32.78485,-85.30578
ALABAMA,AL,836,CYPRESS,65,HALE,32.97002,-87.72799
ALABAMA,AL,840,DADEVILLE,123,TALLAPOOSA,32.83124,-85.76357
ALABAMA,AL,845,DALEVILLE,45,DALE,31.31017,-85.71299
ALABAMA,AL,855,DANVILLE,103,MORGAN,34.41454,-87.08751
ALABAMA,AL,860,DAPHNE,3,BALDWIN,30.60353,-87.9036
ALABAMA,AL,863,DARLINGTON,131,WILCOX,31.97765,-87.13054
ALABAMA,AL,865,DAUPHIN ISLAND,97,MOBILE,30.25548,-88.10972
ALABAMA,AL,870,DAVISTON,123,TALLAPOOSA,33.0529,-85.63968
ALABAMA,AL,875,DAWSON,49,DEKALB,34.30398,-85.92608
ALABAMA,AL,880,DAYTON,91,MARENGO,32.35024,-87.64193
ALABAMA,AL,883,DEARMANVILLE,15,CALHOUN,33.62649,-85.75135
ALABAMA,AL,885,DEATSVILLE,51,ELMORE,32.60819,-86.39581
ALABAMA,AL,890,DECATUR,103,MORGAN,34.60593,-86.98334
ALABAMA,AL,891,DEER PARK,129,WASHINGTON,31.21684,-88.31723
ALABAMA,AL,892,DELMAR,133,WINSTON,34.1701,-87.60586
ALABAMA,AL,895,DELTA,27,CLAY,33.44011,-85.69052
ALABAMA,AL,900,DEMOPOLIS,91,MARENGO,32.51764,-87.8364
ALABAMA,AL,905,DETROIT,75,LAMAR,34.02816,-88.17004
ALABAMA,AL,904,DICKINSON,25,CLARKE,31.76349,-87.71055
ALABAMA,AL,906,DIXIANA,73,JEFFERSON,33.74021,-86.64938
ALABAMA,AL,907,DIXONS MILLS,91,MARENGO,32.05821,-87.78751
ALABAMA,AL,910,DOCENA,73,JEFFERSON,33.55955,-86.9311
ALABAMA,AL,915,DOLOMITE,73,JEFFERSON,33.46289,-86.96138
ALABAMA,AL,920,DORA,127,WALKER,33.72872,-87.09028
ALABAMA,AL,930,DOTHAN,69,HOUSTON,31.22323,-85.39049
ALABAMA,AL,940,DOUBLE SPRINGS,133,WINSTON,34.1465,-87.4022
ALABAMA,AL,943,DOUGLAS,95,MARSHALL,34.17371,-86.32359
ALABAMA,AL,950,DOZIER,41,CRENSHAW,31.49211,-86.36496
ALABAMA,AL,952,DREWRY,99,MONROE,31.48627,-87.25304
ALABAMA,AL,953,DUNCANVILLE,125,TUSCALOOSA,33.06179,-87.44223
ALABAMA,AL,954,DUTTON,71,JACKSON,34.61092,-85.91692
ALABAMA,AL,960,EAST BREWTON,53,ESCAMBIA,31.10518,-87.07219
ALABAMA,AL,955,EASTABOGA,15,CALHOUN,33.60594,-86.02136
ALABAMA,AL,965,ECHOLA,125,TUSCALOOSA,33.34484,-87.78946
ALABAMA,AL,970,ECLECTIC,51,ELMORE,32.63541,-86.03441
ALABAMA,AL,990,EDGEWATER,73,JEFFERSON,33.52677,-86.95777
ALABAMA,AL,1000,EDWARDSVILLE,29,CLEBURNE,33.70733,-85.50912
ALABAMA,AL,1010,ELBA,31,COFFEE,31.41461,-86.06772
ALABAMA,AL,1011,ELBERTA,3,BALDWIN,30.41436,-87.59776
ALABAMA,AL,1012,ELDRIDGE,127,WALKER,33.92288,-87.61724
ALABAMA,AL,1020,ELKMONT,83,LIMESTONE,34.92897,-86.9739
ALABAMA,AL,1025,ELMORE,51,ELMORE,32.47986,-86.36192
ALABAMA,AL,1024,ELROD,125,TUSCALOOSA,33.25623,-87.79224
ALABAMA,AL,1026,EMELLE,119,SUMTER,32.7293,-88.31448
ALABAMA,AL,1028,EMPIRE,127,WALKER,33.80844,-87.01056
ALABAMA,AL,1030,ENTERPRISE,31,COFFEE,31.31517,-85.85522
ALABAMA,AL,1040,EPES,119,SUMTER,32.69041,-88.12613
ALABAMA,AL,1042,EQUALITY,37,COOSA,32.76207,-86.10191
ALABAMA,AL,1043,ESTILLFORK,71,JACKSON,34.91009,-86.17054
ALABAMA,AL,1045,ETHELSVILLE,107,PICKENS,33.41567,-88.2167
ALABAMA,AL,1050,EUFAULA,5,BARBOUR,31.89127,-85.14549
ALABAMA,AL,1060,EUNOLA,61,GENEVA,31.0399,-85.84744
ALABAMA,AL,1070,EUTAW,63,GREENE,32.84059,-87.88762
ALABAMA,AL,1071,EVA,103,MORGAN,34.33232,-86.75889
ALABAMA,AL,1080,EVERGREEN,35,CONECUH,31.4335,-86.95692
ALABAMA,AL,1090,EXCEL,99,MONROE,31.42794,-87.34137
ALABAMA,AL,1094,FACKLER,71,JACKSON,34.79258,-85.90998
ALABAMA,AL,1110,FAIRFIELD,73,JEFFERSON,33.48594,-86.91194
ALABAMA,AL,1115,FAIRFORD,129,WASHINGTON,31.16823,-88.06417
ALABAMA,AL,1120,FAIRHOPE,3,BALDWIN,30.52297,-87.90333
ALABAMA,AL,1121,FAIRVIEW,43,CULLMAN,34.25537,-86.68805
ALABAMA,AL,3299,FALCO,39,COVINGTON,31.04907,-86.61829
ALABAMA,AL,1130,FALKVILLE,103,MORGAN,34.36843,-86.90862
ALABAMA,AL,1140,FAUNSDALE,91,MARENGO,32.45986,-87.59389
ALABAMA,AL,1150,FAYETTE,57,FAYETTE,33.68455,-87.83085
ALABAMA,AL,1152,FERNBANK,75,LAMAR,33.56678,-88.12975
ALABAMA,AL,1154,FITZPATRICK,11,BULLOCK,32.21653,-85.88884
ALABAMA,AL,1160,FIVE POINTS,17,CHAMBERS,33.01818,-85.35023
ALABAMA,AL,1170,FLAT CREEK,73,JEFFERSON,33.64427,-87.0925
ALABAMA,AL,1174,FLAT ROCK,71,JACKSON,34.7698,-85.69442
ALABAMA,AL,1176,FLINT CITY,103,MORGAN,34.52315,-86.97029
ALABAMA,AL,1180,FLOMATON,53,ESCAMBIA,31.00018,-87.26081
ALABAMA,AL,1190,FLORALA,39,COVINGTON,31.00518,-86.328
ALABAMA,AL,1200,FLORENCE,77,LAUDERDALE,34.79981,-87.67725
ALABAMA,AL,1210,FOLEY,3,BALDWIN,30.40659,-87.6836
ALABAMA,AL,1212,FOREST HOME,13,BUTLER,31.86237,-86.84276
ALABAMA,AL,1211,FORESTDALE,73,JEFFERSON,33.57011,-86.89638
ALABAMA,AL,1213,FORKLAND,63,GREENE,32.64819,-87.88335
ALABAMA,AL,1215,FORT DAVIS,87,MACON,32.2432,-85.70967
ALABAMA,AL,1220,FORT DEPOSIT,85,LOWNDES,31.98459,-86.57859
ALABAMA,AL,1225,FORT MCCLELLAN,15,CALHOUN,33.72204,-85.78127
ALABAMA,AL,1226,FORT MITCHELL,113,RUSSELL,32.35194,-85.02167
ALABAMA,AL,1228,FORT MORGAN,3,BALDWIN,30.26472,-87.68917
ALABAMA,AL,1235,FORT NOVOSEL,31,COFFEE,31.34282,-85.71538
ALABAMA,AL,1230,FORT PAYNE,49,DEKALB,34.44425,-85.71969
ALABAMA,AL,1237,FOSTERS,125,TUSCALOOSA,33.09484,-87.68584
ALABAMA,AL,1238,FOUNTAIN,99,MONROE,31.5946,-87.4089
ALABAMA,AL,1236,FRANKLIN,87,MACON,32.4785,-85.8025
ALABAMA,AL,1239,FRANKVILLE,129,WASHINGTON,31.64655,-88.14751
ALABAMA,AL,3086,FRIENDSHIP,95,MARSHALL,34.3712,-86.45415
ALABAMA,AL,1240,FRISCO CITY,99,MONROE,31.4335,-87.40138
ALABAMA,AL,1247,FRUITDALE,129,WASHINGTON,31.34267,-88.40779
ALABAMA,AL,1250,FRUITHURST,29,CLEBURNE,33.73094,-85.43384
ALABAMA,AL,1260,FULTON,25,CLARKE,31.78849,-87.72722
ALABAMA,AL,1270,FULTONDALE,73,JEFFERSON,33.60483,-86.79388
ALABAMA,AL,1272,FURMAN,131,WILCOX,32.00344,-86.96417
ALABAMA,AL,1274,FYFFE,49,DEKALB,34.44676,-85.90414
ALABAMA,AL,1280,GADSDEN,55,ETOWAH,34.01434,-86.00639
ALABAMA,AL,1285,GAINESTOWN,25,CLARKE,31.44544,-87.69333
ALABAMA,AL,1290,GAINESVILLE,119,SUMTER,32.82096,-88.15891
ALABAMA,AL,1295,GALLANT,55,ETOWAH,33.9987,-86.2453
ALABAMA,AL,1296,GALLION,65,HALE,32.4968,-87.71612
ALABAMA,AL,1298,GANTT,39,COVINGTON,31.40683,-86.48413
ALABAMA,AL,1300,GANTTS QUARRY,121,TALLADEGA,33.14845,-86.28942
ALABAMA,AL,1310,GARDEN CITY,43,CULLMAN,34.01454,-86.74694
ALABAMA,AL,1315,GARDENDALE,73,JEFFERSON,33.6601,-86.81277
ALABAMA,AL,1317,GARLAND,13,BUTLER,31.55655,-86.82331
ALABAMA,AL,1320,GAYLESVILLE,19,CHEROKEE,34.26843,-85.55691
ALABAMA,AL,1330,GEIGER,119,SUMTER,32.86819,-88.30503
ALABAMA,AL,1340,GENEVA,61,GENEVA,31.1024,-85.69688
ALABAMA,AL,1350,GEORGIANA,13,BUTLER,31.6371,-86.74192
ALABAMA,AL,1351,GERALDINE,49,DEKALB,34.35148,-86.00081
ALABAMA,AL,1360,GILBERTOWN,23,CHOCTAW,31.8771,-88.32141
ALABAMA,AL,1365,GLEN ALLEN,57,FAYETTE,33.9151,-87.74169
ALABAMA,AL,1370,GLENCOE,55,ETOWAH,33.95704,-85.93247
ALABAMA,AL,1380,GLENWOOD,41,CRENSHAW,31.6646,-86.17134
ALABAMA,AL,1385,GOODSPRINGS,127,WALKER,33.669,-87.23167
ALABAMA,AL,1390,GOODWATER,37,COOSA,33.06567,-86.0533
ALABAMA,AL,1394,GOODWAY,99,MONROE,31.33684,-87.42582
ALABAMA,AL,1400,GORDO,107,PICKENS,33.32012,-87.9028
ALABAMA,AL,1410,GORDON,69,HOUSTON,31.14129,-85.0966
ALABAMA,AL,1415,GORGAS,127,WALKER,33.64928,-87.20806
ALABAMA,AL,1420,GOSHEN,109,PIKE,31.72294,-86.11829
ALABAMA,AL,1423,GRADY,101,MONTGOMERY,31.99487,-86.20107
ALABAMA,AL,1424,GRAHAM,111,RANDOLPH,33.45761,-85.32078
ALABAMA,AL,1425,GRAND BAY,97,MOBILE,30.47631,-88.34223
ALABAMA,AL,1430,GRANT,95,MARSHALL,34.5287,-86.25332
ALABAMA,AL,1433,GRASSELLI,73,JEFFERSON,33.44872,-86.90944
ALABAMA,AL,1435,GRAYSON,133,WINSTON,34.2804,-87.3195
ALABAMA,AL,1440,GRAYSVILLE,73,JEFFERSON,33.62066,-86.97138
ALABAMA,AL,1445,GREEN POND,7,BIBB,33.22512,-87.12638
ALABAMA,AL,1450,GREENSBORO,65,HALE,32.70415,-87.5955
ALABAMA,AL,1460,GREENVILLE,13,BUTLER,31.8296,-86.61775
ALABAMA,AL,1461,GRIMES,45,DALE,31.30462,-85.44799
ALABAMA,AL,1480,GROVE HILL,25,CLARKE,31.70877,-87.77722
ALABAMA,AL,1482,GROVE OAK,49,DEKALB,34.43814,-86.05248
ALABAMA,AL,1509,GU-WIN,93,MARION,33.96094,-87.88058
ALABAMA,AL,1490,GUIN,93,MARION,33.96566,-87.91475
ALABAMA,AL,1493,GULF SHORES,3,BALDWIN,30.24604,-87.70082
ALABAMA,AL,1495,GUNTER AIR FORCE BASE,101,MONTGOMERY,32.38266,-86.35502
ALABAMA,AL,1500,GUNTERSVILLE,95,MARSHALL,34.35823,-86.29446
ALABAMA,AL,1508,GURLEY,89,MADISON,34.70176,-86.37582
ALABAMA,AL,1510,HACKLEBURG,93,MARION,34.27732,-87.82864
ALABAMA,AL,1520,HALEBURG,67,HENRY,31.40656,-85.13715
ALABAMA,AL,1530,HALEYVILLE,133,WINSTON,34.22649,-87.62141
ALABAMA,AL,1535,HALSELL,23,CHOCTAW,32.28403,-88.27725
ALABAMA,AL,1540,HAMILTON,93,MARION,34.14232,-87.98864
ALABAMA,AL,1550,HAMMONDVILLE,49,DEKALB,34.58175,-85.62663
ALABAMA,AL,1560,HANCEVILLE,43,CULLMAN,34.06065,-86.7675
ALABAMA,AL,1563,HARDAWAY,87,MACON,32.28653,-85.84884
ALABAMA,AL,1570,HARPERSVILLE,117,SHELBY,33.344,-86.43804
ALABAMA,AL,1580,HARTFORD,61,GENEVA,31.1024,-85.69688
ALABAMA,AL,1590,HARTSELLE,103,MORGAN,34.44343,-86.93528
ALABAMA,AL,1593,HARVEST,89,MADISON,34.85564,-86.75083
ALABAMA,AL,1595,HATCHECHUBBEE,113,RUSSELL,32.2707,-85.27577
ALABAMA,AL,1600,HAYDEN,9,BLOUNT,33.8926,-86.75777
ALABAMA,AL,1605,HAYNEVILLE,85,LOWNDES,32.18403,-86.58025
ALABAMA,AL,1607,HAZEL GREEN,89,MADISON,34.93231,-86.57194
ALABAMA,AL,1610,HEADLAND,67,HENRY,31.35128,-85.34216
ALABAMA,AL,1615,HEATH,39,COVINGTON,31.36072,-86.46968
ALABAMA,AL,1620,HEFLIN,29,CLEBURNE,33.64899,-85.58746
ALABAMA,AL,1630,HELENA,117,SHELBY,33.29622,-86.8436
ALABAMA,AL,1632,HENAGAR,49,DEKALB,34.63508,-85.76719
ALABAMA,AL,1633,HIGDON,71,JACKSON,34.84564,-85.61636
ALABAMA,AL,1634,HIGHLAND HOME,41,CRENSHAW,31.95348,-86.31385
ALABAMA,AL,1639,HILLIARD,127,WALKER,33.81455,-87.3764
ALABAMA,AL,1640,HILLSBORO,79,LAWRENCE,34.63926,-87.19168
ALABAMA,AL,1644,HISSOP,37,COOSA,32.89235,-86.1533
ALABAMA,AL,1650,HOBSON CITY,15,CALHOUN,33.62149,-85.84413
ALABAMA,AL,1660,HODGES,59,FRANKLIN,34.32704,-87.92642
ALABAMA,AL,1670,HOKES BLUFF,55,ETOWAH,33.99815,-85.86636
ALABAMA,AL,1675,HOLLINS,27,CLAY,33.11762,-86.14442
ALABAMA,AL,1680,HOLLY POND,43,CULLMAN,34.17426,-86.61638
ALABAMA,AL,1685,HOLLYTREE,71,JACKSON,34.79898,-86.25332
ALABAMA,AL,1690,HOLLYWOOD,71,JACKSON,34.72425,-85.97248
ALABAMA,AL,1700,HOLT,125,TUSCALOOSA,33.23401,-87.48445
ALABAMA,AL,1701,HOLY TRINITY,113,RUSSELL,32.22237,-85.00521
ALABAMA,AL,1710,HOMEWOOD,73,JEFFERSON,33.47177,-86.80082
ALABAMA,AL,1711,HONORAVILLE,41,CRENSHAW,31.85071,-86.40608
ALABAMA,AL,1716,HOOVER,73,JEFFERSON,33.40368,-86.72819
ALABAMA,AL,1712,HOPE HULL,101,MONTGOMERY,32.26986,-86.35719
ALABAMA,AL,1714,HORN HILL,39,COVINGTON,31.24573,-86.31662
ALABAMA,AL,1713,HORTON,95,MARSHALL,34.20093,-86.29692
ALABAMA,AL,1715,HOUSTON,133,WINSTON,34.1415,-87.2581
ALABAMA,AL,1717,HUEYTOWN,73,JEFFERSON,33.45122,-86.99666
ALABAMA,AL,1730,HUNTSVILLE,89,MADISON,34.7304,-86.58594
ALABAMA,AL,1740,HURTSBORO,113,RUSSELL,32.24181,-85.41633
ALABAMA,AL,1742,HUXFORD,53,ESCAMBIA,31.22017,-87.46193
ALABAMA,AL,1744,HYBART,99,MONROE,31.82654,-87.38194
ALABAMA,AL,1745,IDER,49,DEKALB,34.71425,-85.6808
ALABAMA,AL,1750,IRONDALE,73,JEFFERSON,33.53816,-86.70721
ALABAMA,AL,1754,IRVINGTON,97,MOBILE,30.50686,-88.23389
ALABAMA,AL,1755,JACHIN,23,CHOCTAW,32.22987,-88.16836
ALABAMA,AL,1756,JACK,31,COFFEE,31.57405,-86.00023
ALABAMA,AL,1760,JACKSON,25,CLARKE,31.5091,-87.8944
ALABAMA,AL,1762,JACKSONS GAP,123,TALLAPOOSA,32.88624,-85.81163
ALABAMA,AL,1770,JACKSONVILLE,15,CALHOUN,33.81382,-85.7613
ALABAMA,AL,1773,JAMESTOWN,19,CHEROKEE,34.39787,-85.57746
ALABAMA,AL,1780,JASPER,127,WALKER,33.83122,-87.27751
ALABAMA,AL,1785,JEFFERSON,91,MARENGO,32.38609,-87.89599
ALABAMA,AL,1790,JEMISON,21,CHILTON,32.95985,-86.74665
ALABAMA,AL,1796,JONES,1,AUTAUGA,32.584,-86.8975
ALABAMA,AL,1794,JOPPA,43,CULLMAN,34.29787,-86.5561
ALABAMA,AL,1798,KANSAS,127,WALKER,33.90177,-87.55196
ALABAMA,AL,1801,KELLERMAN,125,TUSCALOOSA,33.34067,-87.30472
ALABAMA,AL,1799,KELLY,45,DALE,31.3238,-85.6552
ALABAMA,AL,1797,KELLYTON,37,COOSA,32.97984,-86.03358
ALABAMA,AL,1800,KENNEDY,75,LAMAR,33.58706,-87.98447
ALABAMA,AL,1803,KENT,51,ELMORE,32.61902,-85.94857
ALABAMA,AL,1805,KILBY,101,MONTGOMERY,32.38804,-86.10111
ALABAMA,AL,1806,KILLEN,77,LAUDERDALE,34.86286,-87.53753
ALABAMA,AL,1807,KIMBERLY,73,JEFFERSON,33.77344,-86.81388
ALABAMA,AL,1809,KIMBROUGH,131,WILCOX,32.03348,-87.56528
ALABAMA,AL,1812,KINSEY,69,HOUSTON,31.29906,-85.34438
ALABAMA,AL,1810,KINSTON,31,COFFEE,31.216,-86.17106
ALABAMA,AL,1815,KNOXVILLE,63,GREENE,32.99235,-87.79057
ALABAMA,AL,1818,LACEYS SPRING,103,MORGAN,34.53426,-86.60416
ALABAMA,AL,1820,LAFAYETTE,17,CHAMBERS,32.89985,-85.40106
ALABAMA,AL,1879,LAKE VIEW,125,TUSCALOOSA,33.28067,-87.1375
ALABAMA,AL,1825,LAKEVIEW,49,DEKALB,34.39092,-85.97831
ALABAMA,AL,1826,LAMISON,131,WILCOX,32.12126,-87.56667
ALABAMA,AL,1830,LANETT,17,CHAMBERS,32.86874,-85.1905
ALABAMA,AL,1840,LANGDALE,17,CHAMBERS,32.81127,-85.16967
ALABAMA,AL,1842,LANGSTON,71,JACKSON,34.53898,-86.07442
ALABAMA,AL,1843,LAPINE,101,MONTGOMERY,31.96571,-86.28441
ALABAMA,AL,1845,LAVACA,23,CHOCTAW,32.14042,-88.08002
ALABAMA,AL,1844,LAWLEY,7,BIBB,32.85957,-86.95138
ALABAMA,AL,1850,LEEDS,73,JEFFERSON,33.54816,-86.54443
ALABAMA,AL,1852,LEESBURG,19,CHEROKEE,34.17982,-85.76136
ALABAMA,AL,1860,LEIGHTON,33,COLBERT,34.70092,-87.52892
ALABAMA,AL,1861,LENOX,35,CONECUH,31.33656,-87.18553
ALABAMA,AL,1862,LEROY,129,WASHINGTON,31.50461,-87.98472
ALABAMA,AL,1863,LESTER,83,LIMESTONE,34.99064,-87.15335
ALABAMA,AL,1864,LETOHATCHEE,85,LOWNDES,32.12959,-86.48581
ALABAMA,AL,1866,LEVEL PLAINS,45,DALE,31.29962,-85.77799
ALABAMA,AL,1865,LEXINGTON,77,LAUDERDALE,34.96925,-87.37113
ALABAMA,AL,1867,LIBERTYVILLE,39,COVINGTON,31.24156,-86.46134
ALABAMA,AL,1868,LILLIAN,3,BALDWIN,30.41298,-87.43692
ALABAMA,AL,1870,LINCOLN,121,TALLADEGA,33.61316,-86.11831
ALABAMA,AL,1880,LINDEN,91,MARENGO,32.30625,-87.79807
ALABAMA,AL,1890,LINEVILLE,27,CLAY,33.31067,-85.75441
ALABAMA,AL,1900,LIPSCOMB,73,JEFFERSON,33.42566,-86.92666
ALABAMA,AL,1910,LISMAN,23,CHOCTAW,32.16876,-88.28253
ALABAMA,AL,1912,LITTLE RIVER,3,BALDWIN,31.2573,-87.7129
ALABAMA,AL,1915,LITTLEVILLE,33,COLBERT,34.59065,-87.67697
ALABAMA,AL,1920,LIVINGSTON,119,SUMTER,32.5843,-88.18725
ALABAMA,AL,1925,LOACHAPOKA,81,LEE,32.6043,-85.59801
ALABAMA,AL,1930,LOCKHART,39,COVINGTON,31.01046,-86.34967
ALABAMA,AL,1932,LOCUST FORK,9,BLOUNT,33.9076,-86.61527
ALABAMA,AL,1934,LOGAN,43,CULLMAN,34.13816,-87.00639
ALABAMA,AL,1940,LOUISVILLE,5,BARBOUR,31.7835,-85.55578
ALABAMA,AL,1939,LOWER PEACH TREE,131,WILCOX,31.84071,-87.54527
ALABAMA,AL,1943,LOXLEY,3,BALDWIN,30.61825,-87.75305
ALABAMA,AL,1950,LUVERNE,41,CRENSHAW,31.71655,-86.26385
ALABAMA,AL,1953,LYNN,133,WINSTON,34.04705,-87.54974
ALABAMA,AL,1970,MADISON,83,LIMESTONE,34.6993,-86.7483
ALABAMA,AL,1980,MADRID,69,HOUSTON,31.03574,-85.39327
ALABAMA,AL,1984,MAGNOLIA,91,MARENGO,32.1357,-87.66806
ALABAMA,AL,1985,MAGNOLIA SPRINGS,3,BALDWIN,30.39943,-87.77623
ALABAMA,AL,1988,MALBIS,3,BALDWIN,30.65575,-87.85194
ALABAMA,AL,1989,MALCOLM,129,WASHINGTON,31.19128,-88.0075
ALABAMA,AL,1990,MALVERN,61,GENEVA,31.13934,-85.5191
ALABAMA,AL,2000,MAPLESVILLE,21,CHILTON,32.78897,-86.87353
ALABAMA,AL,2002,MARBURY,1,AUTAUGA,32.70124,-86.47109
ALABAMA,AL,2010,MARGARET,115,ST. CLAIR,33.68621,-86.47498
ALABAMA,AL,2020,MARION,105,PERRY,32.63235,-87.31917
ALABAMA,AL,2022,MARION JUNCTION,47,DALLAS,32.43736,-87.23888
ALABAMA,AL,2023,MARVEL,7,BIBB,33.14678,-87.00305
ALABAMA,AL,2024,MATHEWS,101,MONTGOMERY,32.26931,-86.00496
ALABAMA,AL,2025,MAXWELL AIR FORCE BASE,101,MONTGOMERY,32.38333,-86.36667
ALABAMA,AL,2026,MAYLENE,117,SHELBY,33.20345,-86.86166
ALABAMA,AL,2029,MAYSVILLE,89,MADISON,34.76978,-86.42984
ALABAMA,AL,2027,MAYTOWN,73,JEFFERSON,33.53594,-86.99722
ALABAMA,AL,1958,MCCALLA,73,JEFFERSON,33.34872,-87.01416
ALABAMA,AL,1957,MCCULLOUGH,53,ESCAMBIA,31.16684,-87.52637
ALABAMA,AL,1959,MCINTOSH,129,WASHINGTON,31.26628,-88.03139
ALABAMA,AL,1960,MCKENZIE,13,BUTLER,31.54238,-86.71497
ALABAMA,AL,1961,MCSHAN,107,PICKENS,33.38095,-88.1417
ALABAMA,AL,1962,MCWILLIAMS,131,WILCOX,31.83099,-87.09387
ALABAMA,AL,2032,MEGARGEL,99,MONROE,31.37989,-87.42832
ALABAMA,AL,2028,MELVIN,23,CHOCTAW,31.93043,-88.45892
ALABAMA,AL,2030,MENTONE,49,DEKALB,34.57918,-85.59009
ALABAMA,AL,2031,MERIDIANVILLE,89,MADISON,34.85148,-86.57222
ALABAMA,AL,2045,MEXIA,99,MONROE,31.50711,-87.38832
ALABAMA,AL,2052,MIDFIELD,73,JEFFERSON,33.4615,-86.90888
ALABAMA,AL,2050,MIDLAND CITY,45,DALE,31.31906,-85.49382
ALABAMA,AL,2060,MIDWAY,11,BULLOCK,32.0771,-85.52217
ALABAMA,AL,2070,MIGNON,121,TALLADEGA,33.18345,-86.26109
ALABAMA,AL,2063,MILLBROOK,51,ELMORE,32.47986,-86.36192
ALABAMA,AL,2065,MILLERS FERRY,131,WILCOX,32.09959,-87.36749
ALABAMA,AL,2067,MILLERVILLE,27,CLAY,33.19151,-85.9258
ALABAMA,AL,2080,MILLPORT,75,LAMAR,33.56345,-88.08142
ALABAMA,AL,2090,MILLRY,129,WASHINGTON,31.63405,-88.31335
ALABAMA,AL,2093,MINTER,47,DALLAS,32.07792,-86.9936
ALABAMA,AL,2100,MOBILE,97,MOBILE,30.69436,-88.04305
ALABAMA,AL,2110,MONROEVILLE,99,MONROE,31.52794,-87.32471
ALABAMA,AL,2120,MONTEVALLO,117,SHELBY,33.10067,-86.86416
ALABAMA,AL,2130,MONTGOMERY,101,MONTGOMERY,32.36681,-86.29997
ALABAMA,AL,2135,MONTROSE,3,BALDWIN,30.5687,-87.90058
ALABAMA,AL,2136,MOODY,115,ST. CLAIR,33.59094,-86.49082
ALABAMA,AL,2140,MOORESVILLE,83,LIMESTONE,34.62642,-86.88057
ALABAMA,AL,2141,MORRIS,73,JEFFERSON,33.74816,-86.8086
ALABAMA,AL,2145,MORVIN,25,CLARKE,31.98571,-87.99334
ALABAMA,AL,2147,MOSSES,85,LOWNDES,32.17459,-86.67192
ALABAMA,AL,2150,MOULTON,79,LAWRENCE,34.48121,-87.29335
ALABAMA,AL,2160,MOUNDVILLE,65,HALE,32.99762,-87.63001
ALABAMA,AL,2173,MOUNT HOPE,79,LAWRENCE,34.45843,-87.48169
ALABAMA,AL,2176,MOUNT MEIGS,101,MONTGOMERY,32.36264,-86.10191
ALABAMA,AL,2174,MOUNT OLIVE,37,COOSA,33.06956,-86.13497
ALABAMA,AL,2175,MOUNT VERNON,97,MOBILE,31.08518,-88.01333
ALABAMA,AL,2170,MOUNTAIN BROOK,73,JEFFERSON,33.50094,-86.75221
ALABAMA,AL,2172,MOUNTAIN CREEK,21,CHILTON,32.71068,-86.47887
ALABAMA,AL,2155,MOUNTAINBORO,55,ETOWAH,34.14704,-86.13053
ALABAMA,AL,2180,MULGA,73,JEFFERSON,33.54983,-86.97416
ALABAMA,AL,2185,MUNFORD,121,TALLADEGA,33.52983,-85.9508
ALABAMA,AL,2187,MUSCADINE,29,CLEBURNE,33.73455,-85.38607
ALABAMA,AL,2190,MUSCLE SHOALS,33,COLBERT,34.74481,-87.66753
ALABAMA,AL,2193,MYRTLEWOOD,91,MARENGO,32.25042,-87.94974
ALABAMA,AL,2194,NANAFALIA,91,MARENGO,32.11293,-87.98807
ALABAMA,AL,2195,NAPIER FIELD,45,DALE,31.31545,-85.4541
ALABAMA,AL,2196,NATURAL BRIDGE,133,WINSTON,34.09344,-87.60197
ALABAMA,AL,2200,NAUVOO,127,WALKER,33.98955,-87.4889
ALABAMA,AL,2203,NECTAR,9,BLOUNT,33.95982,-86.63944
ALABAMA,AL,2205,NEEDHAM,23,CHOCTAW,31.98793,-88.33669
ALABAMA,AL,2220,NEW BROCKTON,31,COFFEE,31.38572,-85.92939
ALABAMA,AL,2223,NEW CASTLE,73,JEFFERSON,33.64899,-86.7686
ALABAMA,AL,2225,NEW HOPE,89,MADISON,34.53712,-86.39426
ALABAMA,AL,2224,NEW MARKET,89,MADISON,34.91003,-86.42779
ALABAMA,AL,2226,NEW SITE,123,TALLAPOOSA,33.0373,-85.7741
ALABAMA,AL,2210,NEWBERN,65,HALE,32.59319,-87.53278
ALABAMA,AL,2222,NEWELL,111,RANDOLPH,33.43317,-85.43356
ALABAMA,AL,2228,NEWSOME SPRINGS,33,COLBERT,34.64787,-87.90559
ALABAMA,AL,2230,NEWTON,45,DALE,31.33517,-85.60521
ALABAMA,AL,2240,NEWVILLE,67,HENRY,31.42184,-85.33771
ALABAMA,AL,2243,NIXBURG,37,COOSA,32.85,-86.107
ALABAMA,AL,2246,NORMAL,89,MADISON,34.78898,-86.57194
ALABAMA,AL,2255,NORTH COURTLAND,79,LAWRENCE,34.66898,-87.30946
ALABAMA,AL,1793,NORTH JOHNS,73,JEFFERSON,33.36733,-87.10361
ALABAMA,AL,2260,NORTHPORT,125,TUSCALOOSA,33.22901,-87.57723
ALABAMA,AL,2270,NOTASULGA,81,LEE,32.56069,-85.67245
ALABAMA,AL,2275,OAK GROVE,121,TALLADEGA,33.19178,-86.29942
ALABAMA,AL,2280,OAK HILL,131,WILCOX,31.92188,-87.08368
ALABAMA,AL,2290,OAKMAN,127,WALKER,33.71344,-87.38862
ALABAMA,AL,2310,OAKWOOD COLLEGE,89,MADISON,34.75537,-86.655
ALABAMA,AL,2320,ODENVILLE,115,ST. CLAIR,33.67732,-86.39665
ALABAMA,AL,2325,OHATCHEE,15,CALHOUN,33.78343,-86.00247
ALABAMA,AL,1093,OLD FABIUS,71,JACKSON,34.82897,-85.7772
ALABAMA,AL,2330,ONEONTA,9,BLOUNT,33.94815,-86.47276
ALABAMA,AL,2340,OPELIKA,81,LEE,32.64541,-85.37828
ALABAMA,AL,2350,OPP,39,COVINGTON,31.28267,-86.25551
ALABAMA,AL,2355,ORANGE BEACH,3,BALDWIN,30.29437,-87.57359
ALABAMA,AL,2360,ORRVILLE,47,DALLAS,32.30625,-87.24555
ALABAMA,AL,2363,OWASSA,35,CONECUH,31.49322,-86.93164
ALABAMA,AL,2368,OWENS CROSS ROADS,89,MADISON,34.58815,-86.45888
ALABAMA,AL,2370,OXFORD,15,CALHOUN,33.61427,-85.83496
ALABAMA,AL,2380,OZARK,45,DALE,31.45906,-85.64049
ALABAMA,AL,2390,PAINT ROCK,71,JACKSON,34.66064,-86.32887
ALABAMA,AL,2395,PALMERDALE,73,JEFFERSON,33.73871,-86.6461
ALABAMA,AL,2396,PANOLA,119,SUMTER,32.95068,-88.26892
ALABAMA,AL,2397,PANSEY,69,HOUSTON,31.15407,-85.17549
ALABAMA,AL,2400,PARRISH,127,WALKER,33.73066,-87.28445
ALABAMA,AL,2405,PELHAM,117,SHELBY,33.28567,-86.80999
ALABAMA,AL,2410,PELL CITY,115,ST. CLAIR,33.58621,-86.28609
ALABAMA,AL,2415,PENNINGTON,23,CHOCTAW,32.20709,-88.05613
ALABAMA,AL,2425,PERDIDO,3,BALDWIN,31.00768,-87.62721
ALABAMA,AL,2423,PERDUE HILL,99,MONROE,31.51405,-87.49332
ALABAMA,AL,2428,PEROTE,11,BULLOCK,31.94766,-85.70522
ALABAMA,AL,2426,PETERMAN,99,MONROE,31.5846,-87.25943
ALABAMA,AL,2427,PETERSON,125,TUSCALOOSA,33.23262,-87.42361
ALABAMA,AL,2430,PETREY,41,CRENSHAW,31.84876,-86.20774
ALABAMA,AL,2440,PHENIX CITY,113,RUSSELL,32.47098,-85.00077
ALABAMA,AL,2450,PHIL CAMPBELL,59,FRANKLIN,34.35093,-87.70642
ALABAMA,AL,2458,PICKENSVILLE,107,PICKENS,33.22734,-88.26642
ALABAMA,AL,2460,PIEDMONT,15,CALHOUN,33.92455,-85.61135
ALABAMA,AL,2463,PIGEON CREEK,13,BUTLER,31.65766,-86.50719
ALABAMA,AL,2465,PIKE ROAD,101,MONTGOMERY,32.28431,-86.10302
ALABAMA,AL,2470,PINCKARD,45,DALE,31.31156,-85.55299
ALABAMA,AL,2480,PINE APPLE,131,WILCOX,31.87207,-86.98972
ALABAMA,AL,2490,PINE HILL,131,WILCOX,31.97959,-87.58806
ALABAMA,AL,2493,PINE LEVEL,101,MONTGOMERY,32.06793,-86.05968
ALABAMA,AL,2495,PINSON,73,JEFFERSON,33.68899,-86.68332
ALABAMA,AL,2500,PISGAH,71,JACKSON,34.68092,-85.84775
ALABAMA,AL,2505,PITTSVIEW,113,RUSSELL,32.18821,-85.16327
ALABAMA,AL,2507,PLANTERSVILLE,47,DALLAS,32.6568,-86.92443
ALABAMA,AL,2510,PLEASANT GROVE,73,JEFFERSON,33.49094,-86.97027
ALABAMA,AL,2515,POINT CLEAR,3,BALDWIN,30.47408,-87.91916
ALABAMA,AL,2520,POLLARD,53,ESCAMBIA,31.02713,-87.17358
ALABAMA,AL,2523,POWELLS CROSSROADS,49,DEKALB,34.53398,-85.88858
ALABAMA,AL,2524,POWHATAN,73,JEFFERSON,33.59066,-87.10861
ALABAMA,AL,2525,PRACO,73,JEFFERSON,33.61372,-87.1125
ALABAMA,AL,2530,PRAIRIE,131,WILCOX,32.13431,-87.40361
ALABAMA,AL,2540,PRATTVILLE,1,AUTAUGA,32.46402,-86.4597
ALABAMA,AL,2543,PRESTWICK,129,WASHINGTON,31.45294,-87.96611
ALABAMA,AL,2545,PRICEVILLE,103,MORGAN,34.52509,-86.89473
ALABAMA,AL,2550,PRICHARD,97,MOBILE,30.7388,-88.07889
ALABAMA,AL,2544,PRINCETON,71,JACKSON,34.84342,-86.24304
ALABAMA,AL,2552,PUTNAM,91,MARENGO,32.02265,-88.0314
ALABAMA,AL,2551,PYRITON,27,CLAY,33.36317,-85.83385
ALABAMA,AL,2555,QUINTON,127,WALKER,33.67205,-87.06666
ALABAMA,AL,2560,RAGLAND,115,ST. CLAIR,33.74454,-86.15581
ALABAMA,AL,2562,RAINBOW CITY,55,ETOWAH,33.95482,-86.04192
ALABAMA,AL,2564,RAINSVILLE,49,DEKALB,34.49425,-85.84775
ALABAMA,AL,2566,RALPH,125,TUSCALOOSA,33.04207,-87.7689
ALABAMA,AL,2565,RAMER,101,MONTGOMERY,32.05043,-86.22135
ALABAMA,AL,2567,RANBURNE,29,CLEBURNE,33.52289,-85.34467
ALABAMA,AL,2563,RANDOLPH,7,BIBB,32.89957,-86.91082
ALABAMA,AL,2568,RANGE,35,CONECUH,31.31267,-87.23553
ALABAMA,AL,2570,RED BAY,59,FRANKLIN,34.43982,-88.14087
ALABAMA,AL,2580,RED LEVEL,39,COVINGTON,31.40711,-86.61219
ALABAMA,AL,2585,REDSTONE ARSENAL,89,MADISON,34.68387,-86.64764
ALABAMA,AL,2587,REECE CITY,55,ETOWAH,34.07232,-86.03331
ALABAMA,AL,2590,REFORM,107,PICKENS,33.37845,-88.0153
ALABAMA,AL,2595,REMLAP,9,BLOUNT,33.81677,-86.60082
ALABAMA,AL,2600,REPTON,35,CONECUH,31.40906,-87.23915
ALABAMA,AL,2605,RIDERWOOD,23,CHOCTAW,32.12876,-88.3278
ALABAMA,AL,2610,RIVER FALLS,39,COVINGTON,31.35327,-86.54102
ALABAMA,AL,3111,RIVER VIEW,17,CHAMBERS,32.81874,-85.17939
ALABAMA,AL,2620,RIVERSIDE,115,ST. CLAIR,33.60621,-86.20442
ALABAMA,AL,2635,RIVERVIEW,53,ESCAMBIA,31.0605,-87.06
ALABAMA,AL,2640,ROANOKE,111,RANDOLPH,33.15123,-85.37217
ALABAMA,AL,2645,ROBA,87,MACON,32.24404,-85.59412
ALABAMA,AL,2650,ROBERTSDALE,3,BALDWIN,30.5538,-87.71193
ALABAMA,AL,2660,ROCKFORD,37,COOSA,32.88957,-86.21969
ALABAMA,AL,2665,ROEBUCK PLAZA,73,JEFFERSON,33.58205,-86.66582
ALABAMA,AL,2670,ROGERSVILLE,77,LAUDERDALE,34.82578,-87.29676
ALABAMA,AL,2675,ROOSEVELT,73,JEFFERSON,33.39289,-86.95333
ALABAMA,AL,2690,RUSSELLVILLE,59,FRANKLIN,34.50787,-87.72864
ALABAMA,AL,2700,RUTLEDGE,41,CRENSHAW,31.73043,-86.30968
ALABAMA,AL,2699,RYLAND,89,MADISON,34.76981,-86.48082
ALABAMA,AL,2701,SAFFORD,47,DALLAS,32.28792,-87.37139
ALABAMA,AL,2702,SAGINAW,117,SHELBY,33.21623,-86.79193
ALABAMA,AL,2703,SAINT BERNARD,43,CULLMAN,34.1747,-86.8141
ALABAMA,AL,1942,SAINT CLAIR,85,LOWNDES,32.32347,-86.61664
ALABAMA,AL,2704,SAINT CLAIR,85,LOWNDES,32.32347,-86.61664
ALABAMA,AL,2832,SAINT FLORIAN,77,LAUDERDALE,34.87342,-87.62336
ALABAMA,AL,2708,SAINT STEPHENS,129,WASHINGTON,31.5398,-88.05463
ALABAMA,AL,2706,SALEM,81,LEE,32.59628,-85.23835
ALABAMA,AL,2709,SALITPA,25,CLARKE,31.62961,-88.02
ALABAMA,AL,2707,SAMANTHA,125,TUSCALOOSA,33.42234,-87.60529
ALABAMA,AL,2710,SAMSON,61,GENEVA,31.11295,-86.04605
ALABAMA,AL,2711,SAND ROCK,19,CHEROKEE,34.24287,-85.76858
ALABAMA,AL,2712,SANFORD,39,COVINGTON,31.29823,-86.38912
ALABAMA,AL,2713,SARALAND,97,MOBILE,30.82074,-88.07056
ALABAMA,AL,2719,SARDIS CITY,55,ETOWAH,34.17426,-86.12275
ALABAMA,AL,2716,SATSUMA,97,MOBILE,30.85324,-88.05611
ALABAMA,AL,2717,SAWYERVILLE,65,HALE,32.7518,-87.72945
ALABAMA,AL,2718,SAYRE,73,JEFFERSON,33.71233,-86.97444
ALABAMA,AL,2714,SAYRETON,73,JEFFERSON,33.56177,-86.82971
ALABAMA,AL,2720,SCOTTSBORO,71,JACKSON,34.67231,-86.03415
ALABAMA,AL,2735,SEABOARD,129,WASHINGTON,31.32128,-88.18862
ALABAMA,AL,2730,SEALE,113,RUSSELL,32.29737,-85.16883
ALABAMA,AL,2740,SEARIGHT,41,CRENSHAW,31.471,-86.39329
ALABAMA,AL,2750,SECTION,71,JACKSON,34.57897,-85.98664
ALABAMA,AL,2760,SELMA,47,DALLAS,32.40736,-87.0211
ALABAMA,AL,2762,SELMONT,47,DALLAS,32.37843,-87.0074
ALABAMA,AL,2763,SEMINOLE,3,BALDWIN,30.5152,-87.47387
ALABAMA,AL,2765,SEMMES,97,MOBILE,30.77824,-88.25917
ALABAMA,AL,2767,SHANNON,73,JEFFERSON,33.40539,-86.87194
ALABAMA,AL,2770,SHAWMUT,17,CHAMBERS,32.8403,-85.18334
ALABAMA,AL,2780,SHEFFIELD,33,COLBERT,34.76509,-87.69864
ALABAMA,AL,2781,SHELBY,117,SHELBY,33.28567,-86.80999
ALABAMA,AL,2783,SHILOH,49,DEKALB,34.46259,-85.87969
ALABAMA,AL,2782,SHORTER,87,MACON,32.39486,-85.9169
ALABAMA,AL,2785,SHORTERVILLE,67,HENRY,31.57017,-85.10132
ALABAMA,AL,2790,SILAS,23,CHOCTAW,31.76543,-88.32918
ALABAMA,AL,2795,SILURIA,117,SHELBY,33.22928,-86.82499
ALABAMA,AL,2800,SILVERHILL,3,BALDWIN,30.54547,-87.75166
ALABAMA,AL,2801,SIPSEY,127,WALKER,33.82483,-87.08611
ALABAMA,AL,2803,SKIPPERVILLE,45,DALE,31.55767,-85.54549
ALABAMA,AL,2805,SKYLINE,71,JACKSON,34.81397,-86.11526
ALABAMA,AL,2810,SLOCOMB,61,GENEVA,31.10823,-85.59438
ALABAMA,AL,2812,SMITHS STATION,81,LEE,32.54014,-85.09855
ALABAMA,AL,2811,SNEAD,9,BLOUNT,34.11954,-86.39554
ALABAMA,AL,2813,SNOW HILL,131,WILCOX,32.00459,-87.00721
ALABAMA,AL,2814,SOMERVILLE,103,MORGAN,34.47338,-86.7987
ALABAMA,AL,2822,SOUTHSIDE,55,ETOWAH,33.9245,-86.0225
ALABAMA,AL,2823,SPANISH FORT,3,BALDWIN,30.67491,-87.91527
ALABAMA,AL,2825,SPAULDING,73,JEFFERSON,33.46872,-86.84249
ALABAMA,AL,2827,SPRAGUE,101,MONTGOMERY,32.13292,-86.26997
ALABAMA,AL,2828,SPRING GARDEN,19,CHEROKEE,33.97288,-85.55385
ALABAMA,AL,2829,SPRING HILL,5,BARBOUR,32.07932,-85.33688
ALABAMA,AL,2830,SPRINGVILLE,115,ST. CLAIR,33.77505,-86.47191
ALABAMA,AL,2831,SPROTT,105,PERRY,32.6768,-87.22139
ALABAMA,AL,2835,SPRUCE PINE,59,FRANKLIN,34.39204,-87.72642
ALABAMA,AL,2705,ST. ELMO,97,MOBILE,30.50096,-88.27497
ALABAMA,AL,2834,STANDING ROCK,17,CHAMBERS,33.07984,-85.253
ALABAMA,AL,2836,STANTON,21,CHILTON,32.73568,-86.89971
ALABAMA,AL,2837,STAPLETON,3,BALDWIN,30.74269,-87.79333
ALABAMA,AL,2838,STEELE,115,ST. CLAIR,33.93982,-86.20164
ALABAMA,AL,2845,STERRETT,117,SHELBY,33.44872,-86.47998
ALABAMA,AL,2850,STEVENSON,71,JACKSON,34.86869,-85.83942
ALABAMA,AL,2852,STEWART,65,HALE,32.91124,-87.70612
ALABAMA,AL,2855,STOCKTON,3,BALDWIN,30.99379,-87.85805
ALABAMA,AL,2860,STROUD,17,CHAMBERS,33.05484,-85.33078
ALABAMA,AL,2870,SULLIGENT,75,LAMAR,33.90177,-88.13448
ALABAMA,AL,2880,SUMITON,73,JEFFERSON,33.75566,-87.05
ALABAMA,AL,2890,SUMMERDALE,3,BALDWIN,30.4877,-87.69971
ALABAMA,AL,2893,SUNFLOWER,129,WASHINGTON,31.38239,-88.00833
ALABAMA,AL,2894,SUSAN MOORE,9,BLOUNT,34.08371,-86.42832
ALABAMA,AL,2891,SUTTLE,105,PERRY,32.53624,-87.17972
ALABAMA,AL,2892,SWEET WATER,91,MARENGO,32.09737,-87.86751
ALABAMA,AL,2897,SYCAMORE,121,TALLADEGA,33.25123,-86.20247
ALABAMA,AL,2900,SYLACAUGA,121,TALLADEGA,33.17317,-86.25164
ALABAMA,AL,2903,SYLVAN SPRINGS,73,JEFFERSON,33.51566,-87.01499
ALABAMA,AL,2904,SYLVANIA,49,DEKALB,34.56231,-85.81247
ALABAMA,AL,2910,TALLADEGA,121,TALLADEGA,33.43594,-86.1058
ALABAMA,AL,2920,TALLADEGA SPRINGS,121,TALLADEGA,33.12151,-86.44331
ALABAMA,AL,2940,TALLASSEE,51,ELMORE,32.53597,-85.89329
ALABAMA,AL,2952,TANNER,83,LIMESTONE,34.73148,-86.97056
ALABAMA,AL,2960,TARRANT,73,JEFFERSON,33.58344,-86.77277
ALABAMA,AL,2961,TAYLOR,69,HOUSTON,31.1649,-85.46827
ALABAMA,AL,2963,TENNILLE,109,PIKE,31.62322,-85.76855
ALABAMA,AL,2965,THEODORE,97,MOBILE,30.54769,-88.17528
ALABAMA,AL,2970,THOMASTON,91,MARENGO,32.26667,-87.62546
ALABAMA,AL,2980,THOMASVILLE,25,CLARKE,31.91349,-87.73584
ALABAMA,AL,2990,THORSBY,21,CHILTON,32.91568,-86.71582
ALABAMA,AL,2991,TIBBIE,129,WASHINGTON,31.36211,-88.24862
ALABAMA,AL,2992,TITUS,51,ELMORE,32.71235,-86.31831
ALABAMA,AL,2993,TONEY,89,MADISON,34.89814,-86.73361
ALABAMA,AL,3000,TOWN CREEK,79,LAWRENCE,34.6812,-87.40613
ALABAMA,AL,3002,TOWNLEY,127,WALKER,33.829,-87.43167
ALABAMA,AL,3010,TOXEY,23,CHOCTAW,31.91293,-88.30946
ALABAMA,AL,3020,TRAFFORD,73,JEFFERSON,33.81816,-86.74277
ALABAMA,AL,3025,TRENTON,71,JACKSON,34.74481,-86.25165
ALABAMA,AL,3026,TRIANA,89,MADISON,34.5862,-86.73333
ALABAMA,AL,3030,TRINITY,103,MORGAN,34.60676,-87.08835
ALABAMA,AL,3040,TROY,109,PIKE,31.80877,-85.96995
ALABAMA,AL,3080,TRUSSVILLE,73,JEFFERSON,33.61983,-86.60888
ALABAMA,AL,3045,TUNNEL SPRINGS,99,MONROE,31.64266,-87.23999
ALABAMA,AL,3050,TUSCALOOSA,125,TUSCALOOSA,33.20984,-87.56917
ALABAMA,AL,3060,TUSCUMBIA,33,COLBERT,34.7312,-87.70253
ALABAMA,AL,3070,TUSKEGEE,87,MACON,32.42415,-85.69096
ALABAMA,AL,3075,TUSKEGEE INSTITUTE,87,MACON,32.42962,-85.70489
ALABAMA,AL,3082,TYLER,47,DALLAS,32.3393,-86.87971
ALABAMA,AL,3083,UNION,63,GREENE,32.98818,-87.91502
ALABAMA,AL,3090,UNION SPRINGS,11,BULLOCK,32.14432,-85.71495
ALABAMA,AL,3100,UNIONTOWN,105,PERRY,32.44958,-87.51417
ALABAMA,AL,3107,URIAH,99,MONROE,31.30517,-87.50221
ALABAMA,AL,3109,VALHERMOSO SPRINGS,103,MORGAN,34.5012,-86.68583
ALABAMA,AL,1100,VALLEY,17,CHAMBERS,32.81874,-85.17939
ALABAMA,AL,3110,VALLEY HEAD,49,DEKALB,34.56897,-85.61497
ALABAMA,AL,3112,VANCE,125,TUSCALOOSA,33.17428,-87.23361
ALABAMA,AL,3113,VANDIVER,117,SHELBY,33.47066,-86.51332
ALABAMA,AL,3115,VERBENA,21,CHILTON,32.74985,-86.51137
ALABAMA,AL,3120,VERNON,75,LAMAR,33.75705,-88.10892
ALABAMA,AL,3125,VESTAVIA HILLS,73,JEFFERSON,33.44872,-86.78777
ALABAMA,AL,3127,VICTORIA,31,COFFEE,31.52989,-85.93828
ALABAMA,AL,3130,VINA,59,FRANKLIN,34.37649,-88.05865
ALABAMA,AL,3140,VINCENT,115,ST. CLAIR,33.38455,-86.41192
ALABAMA,AL,3142,VINEGAR BEND,129,WASHINGTON,31.26378,-88.34474
ALABAMA,AL,3144,VINEMONT,43,CULLMAN,34.24176,-86.86611
ALABAMA,AL,3150,VREDENBURGH,99,MONROE,31.82849,-87.32166
ALABAMA,AL,3160,WADLEY,111,RANDOLPH,33.12289,-85.56968
ALABAMA,AL,3162,WAGARVILLE,129,WASHINGTON,31.43628,-88.02834
ALABAMA,AL,3163,WALDO,121,TALLADEGA,33.38039,-86.02691
ALABAMA,AL,3165,WALKER SPRINGS,25,CLARKE,31.5407,-87.7911
ALABAMA,AL,3170,WALNUT GROVE,55,ETOWAH,34.06565,-86.30637
ALABAMA,AL,3172,WARD,119,SUMTER,32.36208,-88.27808
ALABAMA,AL,3180,WARRIOR,73,JEFFERSON,33.8143,-86.8094
ALABAMA,AL,3190,WATERLOO,77,LAUDERDALE,34.91814,-88.0642
ALABAMA,AL,3192,WATSON,73,JEFFERSON,33.63372,-86.87944
ALABAMA,AL,3195,WATTSVILLE,115,ST. CLAIR,33.68149,-86.2797
ALABAMA,AL,3200,WAVERLY,17,CHAMBERS,32.73541,-85.57912
ALABAMA,AL,3210,WEAVER,15,CALHOUN,33.75205,-85.81135
ALABAMA,AL,3220,WEBB,69,HOUSTON,31.26045,-85.27327
ALABAMA,AL,3230,WEDOWEE,111,RANDOLPH,33.309,-85.48467
ALABAMA,AL,3235,WELLINGTON,15,CALHOUN,33.8226,-85.89275
ALABAMA,AL,3236,WEOGUFKA,37,COOSA,33.01651,-86.3122
ALABAMA,AL,3240,WEST BLOCTON,7,BIBB,33.11817,-87.125
ALABAMA,AL,3250,WEST END ANNISTON,15,CALHOUN,33.64288,-85.86747
ALABAMA,AL,3255,WEST GREENE,63,GREENE,32.92374,-88.0853
ALABAMA,AL,3260,WEST JEFFERSON,73,JEFFERSON,33.5312,-86.83008
ALABAMA,AL,3261,WESTON,93,MARION,34.15982,-88.03198
ALABAMA,AL,3265,WESTOVER,117,SHELBY,33.34955,-86.53582
ALABAMA,AL,3270,WETUMPKA,51,ELMORE,32.54374,-86.21191
ALABAMA,AL,3276,WHATLEY,25,CLARKE,31.6502,-87.70969
ALABAMA,AL,1795,WHEELER DAM VILLAGE,79,LAWRENCE,34.79342,-87.37808
ALABAMA,AL,3271,WHITE HALL,85,LOWNDES,32.32708,-86.71192
ALABAMA,AL,3272,WHITE PLAINS,15,CALHOUN,33.74732,-85.68913
ALABAMA,AL,3274,WHITES CHAPEL,115,ST. CLAIR,33.59899,-86.53971
ALABAMA,AL,3275,WHITFIELD,119,SUMTER,32.36542,-88.0903
ALABAMA,AL,3277,WIKSBURG,69,HOUSTON,,
ALABAMA,AL,3278,WILMER,97,MOBILE,30.82324,-88.3614
ALABAMA,AL,3279,WILSON LAKE SHORES,33,COLBERT,34.80314,-87.57892
ALABAMA,AL,3280,WILSONVILLE,117,SHELBY,33.23428,-86.48359
ALABAMA,AL,3290,WILTON,117,SHELBY,33.07873,-86.88166
ALABAMA,AL,3300,WINFIELD,93,MARION,33.92899,-87.81725
ALABAMA,AL,3301,WOODLAND,111,RANDOLPH,33.37428,-85.39967
ALABAMA,AL,3306,WOODSTOCK,7,BIBB,33.20678,-87.15
ALABAMA,AL,3310,WOODVILLE,71,JACKSON,34.62787,-86.27443
ALABAMA,AL,3312,WOODWARD,73,JEFFERSON,33.43428,-86.94721
ALABAMA,AL,3318,YANTLEY,23,CHOCTAW,32.24598,-88.37948
ALABAMA,AL,3319,YELLOW BLUFF,131,WILCOX,31.96765,-87.46805
ALABAMA,AL,3321,YELLOW PINE,129,WASHINGTON,31.40572,-88.42974
ALABAMA,AL,3320,YORK,119,SUMTER,32.48625,-88.29642
ALASKA,AK,8,AFOGNAK,150,KODIAK ISLAND,58.26222,-152.58833
ALASKA,AK,10,AGUIKCHUK,50,BETHEL,60.475,-164.43556
ALASKA,AK,20,AKHIOK,150,KODIAK ISLAND,56.94003,-154.18083
ALASKA,AK,30,AKIACHAK,50,BETHEL,60.90623,-161.42742
ALASKA,AK,40,AKIAK,50,BETHEL,60.90481,-161.22702
ALASKA,AK,50,AKULURAK,50,BETHEL,62.55222,-164.55278
ALASKA,AK,55,AKUMSUK,158,KUSILVAK CA,62.72306,-164.47222
ALASKA,AK,60,AKUTAN,13,ALEUTIANS EAST,54.1343,-165.77515
ALASKA,AK,65,ALAGANIK,63,CHUGACH CA,60.42972,-145.29611
ALASKA,AK,70,ALAKANUK,158,KUSILVAK CA,62.67969,-164.64894
ALASKA,AK,90,ALEKNAGIK,70,DILLINGHAM,59.28256,-158.61767
ALASKA,AK,92,ALEXANDER,170,MATANUSKA-SUSITNA,56.24667,-134.64806
ALASKA,AK,94,ALEXANDERS VILLAGE,290,YUKON-KOYUKUK,66.78833,-145.43694
ALASKA,AK,96,ALITAK,150,KODIAK ISLAND,56.84285,-154.30973
ALASKA,AK,100,ALLAKAKET,290,YUKON-KOYUKUK,66.56556,-152.64556
ALASKA,AK,107,AMBLER,188,NORTHWEST ARCTIC,67.08611,-157.85139
ALASKA,AK,108,AMCHITKA,16,ALEUTIANS WEST,51.56722,178.8775
ALASKA,AK,110,ANAKTUVUK PASS,185,NORTH SLOPE,68.14333,-151.73583
ALASKA,AK,120,ANCHOR POINT,122,KENAI PENINSULA,59.77667,-151.83139
ALASKA,AK,130,ANCHORAGE,20,ANCHORAGE,61.21806,-149.90028
ALASKA,AK,132,ANDERSON,68,DENALI,63.50278,-170.44694
ALASKA,AK,140,ANGOON,105,HOONAH-ANGOON CA,58.7586,-136.23715
ALASKA,AK,150,ANIAK,50,BETHEL,61.58139,-159.54278
ALASKA,AK,160,ANNETTE,198,PRINCE OF WALES-HYDER CA,55.04244,-131.57223
ALASKA,AK,165,ANOGOK,50,BETHEL,59.82111,-164.02861
ALASKA,AK,170,ANVIK,290,YUKON-KOYUKUK,62.65611,-160.20667
ALASKA,AK,180,ARCTIC VILLAGE,290,YUKON-KOYUKUK,68.11495,-145.57981
ALASKA,AK,210,ATKA,16,ALEUTIANS WEST,52.22016,-174.20673
ALASKA,AK,212,ATMAUTLUAK,50,BETHEL,60.86675,-162.27314
ALASKA,AK,211,ATQASUK,185,NORTH SLOPE,70.46802,-157.43134
ALASKA,AK,215,ATTU,16,ALEUTIANS WEST,52.83261,173.17962
ALASKA,AK,217,AURORA LODGE,90,FAIRBANKS NORTH STAR,64.47056,-146.93861
ALASKA,AK,230,BAKER,290,YUKON-KOYUKUK,56.35816,-133.62891
ALASKA,AK,239,BARTLETT COVE,105,HOONAH-ANGOON CA,58.45533,-135.88499
ALASKA,AK,240,BEAVER,290,YUKON-KOYUKUK,66.362,-147.40781
ALASKA,AK,245,BEECHEY POINT,185,NORTH SLOPE,70.48747,-149.16264
ALASKA,AK,250,BELKOFSKI,13,ALEUTIANS EAST,55.08638,-162.03292
ALASKA,AK,270,BETHEL,50,BETHEL,60.75056,-160.50056
ALASKA,AK,280,BETTLES,290,YUKON-KOYUKUK,66.91437,-151.52842
ALASKA,AK,291,BIG HORN,90,FAIRBANKS NORTH STAR,64.72444,-147.31167
ALASKA,AK,292,BIG LAKE,170,MATANUSKA-SUSITNA,59.362,-155.25347
ALASKA,AK,294,BILL MOORES,158,KUSILVAK CA,62.94972,-163.77889
ALASKA,AK,295,BIRCH CREEK,290,YUKON-KOYUKUK,66.2698,-145.8186
ALASKA,AK,297,BIRCH LAKE,90,FAIRBANKS NORTH STAR,61.14518,-149.93712
ALASKA,AK,296,BIRCHES,290,YUKON-KOYUKUK,65.135,-153.55667
ALASKA,AK,298,BLACK,158,KUSILVAK CA,62.33611,-165.335
ALASKA,AK,299,BLACK DOME,180,NOME,65.62667,-164.72806
ALASKA,AK,300,BODENBURG BUTTE,170,MATANUSKA-SUSITNA,61.54611,-149.05
ALASKA,AK,330,BORDER,90,FAIRBANKS NORTH STAR,57.1191,-135.43379
ALASKA,AK,301,BORNITE,188,NORTHWEST ARCTIC,67.05917,-156.94278
ALASKA,AK,303,BOUNDARY,240,SOUTHEAST FAIRBANKS,60.29321,-140.92978
ALASKA,AK,304,BREVIG MISSION,180,NOME,65.33335,-166.48924
ALASKA,AK,307,BUCKLAND,188,NORTHWEST ARCTIC,65.97995,-161.1393
ALASKA,AK,308,CAMPBELL,20,ANCHORAGE ,61.16139,-150.02433
ALASKA,AK,309,CAMPION AIR FORCE STATION (HISTORICAL),290,YUKON-KOYUKUK,64.70583,-156.72806
ALASKA,AK,310,CANDLE,188,NORTHWEST ARCTIC,65.90652,-161.94154
ALASKA,AK,311,CANTWELL,68,DENALI,63.39167,-148.95083
ALASKA,AK,312,CANYON VILLAGE,290,YUKON-KOYUKUK,67.15484,-142.08782
ALASKA,AK,313,CAPE LISBURNE,185,NORTH SLOPE,68.87513,-166.11002
ALASKA,AK,314,CAPE NEWENHAM,50,BETHEL,58.64639,-162.0625
ALASKA,AK,315,CAPE POLE,198,PRINCE OF WALES-HYDER CA,55.9665,-133.79615
ALASKA,AK,316,CAPE ROMANZOF,158,KUSILVAK CA,61.78028,-166.03861
ALASKA,AK,317,CAPE YAKATAGA,282,YAKUTAT CITY AND BOR,60.06258,-142.43217
ALASKA,AK,318,CAPE YORK,180,NOME,65.41402,-167.46672
ALASKA,AK,319,CARO,290,YUKON-KOYUKUK,67.1675,-148.01972
ALASKA,AK,320,CENTRAL,290,YUKON-KOYUKUK,65.57361,-144.78306
ALASKA,AK,322,CHALKYITSIK,290,YUKON-KOYUKUK,66.64926,-143.7276
ALASKA,AK,324,CHANDALAR,290,YUKON-KOYUKUK,67.48536,-148.61466
ALASKA,AK,326,CHARIOT,185,NORTH SLOPE,68.10583,-165.74278
ALASKA,AK,328,CHARLIESKIN VILLAGE,240,SOUTHEAST FAIRBANKS,62.97056,-141.82
ALASKA,AK,332,CHATANIKA,90,FAIRBANKS NORTH STAR,65.12015,-147.48806
ALASKA,AK,334,CHEFORNAK,50,BETHEL,60.15708,-164.28577
ALASKA,AK,336,CHENA HOT SPRINGS,90,FAIRBANKS NORTH STAR,65.05183,-146.04743
ALASKA,AK,360,CHENEGA BAY,63,CHUGACH CA,60.07724,-147.9931
ALASKA,AK,362,CHENIK (HISTORICAL),122,KENAI PENINSULA,59.21389,-154.13889
ALASKA,AK,364,CHERNOFSKI,16,ALEUTIANS WEST,53.40351,-167.54964
ALASKA,AK,370,CHEVAK,158,KUSILVAK CA,61.53706,-165.60272
ALASKA,AK,372,CHICAGO CREEK,188,NORTHWEST ARCTIC,65.89444,-162.44917
ALASKA,AK,374,CHICKALOON,170,MATANUSKA-SUSITNA,61.79667,-148.46278
ALASKA,AK,380,CHICKEN,240,SOUTHEAST FAIRBANKS,58.30386,-134.41092
ALASKA,AK,400,CHIGNIK,164,LAKE AND PENINSULA,56.29442,-158.4038
ALASKA,AK,401,CHIGNIK LAGOON,164,LAKE AND PENINSULA,56.31116,-158.53593
ALASKA,AK,402,CHIGNIK LAKE,164,LAKE AND PENINSULA,56.29442,-158.4038
ALASKA,AK,404,CHISANA,66,COPPER RIVER CA,62.07119,-142.04837
ALASKA,AK,410,CHISTOCHINA,66,COPPER RIVER CA,62.56267,-144.67179
ALASKA,AK,420,CHITINA,66,COPPER RIVER CA,61.51562,-144.43956
ALASKA,AK,431,CHRISTIAN,290,YUKON-KOYUKUK,67.36,-145.19611
ALASKA,AK,432,CHUATHBALUK,50,BETHEL,61.57912,-159.22562
ALASKA,AK,434,CHUGIAK,20,ANCHORAGE,61.38889,-149.48194
ALASKA,AK,433,CHULITNA,170,MATANUSKA-SUSITNA,62.88333,-149.83333
ALASKA,AK,450,CIRCLE,290,YUKON-KOYUKUK,65.828,-144.076
ALASKA,AK,453,CIRCLE HOT SPRINGS,290,YUKON-KOYUKUK,65.48547,-144.61078
ALASKA,AK,457,CLAM GULCH,122,KENAI PENINSULA,60.23111,-151.39361
ALASKA,AK,460,CLARKS POINT,70,DILLINGHAM,58.83369,-158.52971
ALASKA,AK,462,CLEAR AIR FORCE STATION,68,DENALI,64.30029,-149.1332
ALASKA,AK,461,CLEARY SUMMIT,90,FAIRBANKS NORTH STAR,65.06722,-147.435
ALASKA,AK,463,CLOVER PASS,130,KETCHIKAN GATEWAY,55.47222,-131.79167
ALASKA,AK,465,COFFMAN COVE,198,PRINCE OF WALES-HYDER CA,56.01075,-132.83275
ALASKA,AK,467,COHOE,122,KENAI PENINSULA,60.36861,-151.30639
ALASKA,AK,469,COLD BAY,13,ALEUTIANS EAST,55.20556,-162.72417
ALASKA,AK,470,COLLEGE,90,FAIRBANKS NORTH STAR,64.85694,-147.80278
ALASKA,AK,480,COOPER LANDING,122,KENAI PENINSULA,60.48988,-149.82629
ALASKA,AK,490,COPPER CENTER,66,COPPER RIVER CA,61.94792,-145.30331
ALASKA,AK,500,CORDOVA,63,CHUGACH CA,60.5432,-145.75867
ALASKA,AK,510,COUNCIL,180,NOME,64.89545,-163.6946
ALASKA,AK,520,CRAIG,198,PRINCE OF WALES-HYDER CA,55.47639,-133.14833
ALASKA,AK,530,CROOKED CREEK,50,BETHEL,61.86616,-158.13227
ALASKA,AK,540,CURRY,170,MATANUSKA-SUSITNA,62.61472,-150.01194
ALASKA,AK,541,DAHL,180,NOME,66.94334,-156.90467
ALASKA,AK,550,DEADHORSE,185,NORTH SLOPE,70.19472,-148.465
ALASKA,AK,560,DEERING,188,NORTHWEST ARCTIC,66.06876,-162.76709
ALASKA,AK,290,DELTA JUNCTION,240,SOUTHEAST FAIRBANKS,64.03778,-145.73222
ALASKA,AK,565,DELTA JUNCTION,240,SOUTHEAST FAIRBANKS,64.03778,-145.73222
ALASKA,AK,567,DENALI,170,MATANUSKA-SUSITNA,63.06933,-151.00609
ALASKA,AK,0,DENALI BOROUGH,68,DENALI,63.06933,-151.00609
ALASKA,AK,569,DIAMOND (HISTORICAL),68,DENALI,63.88667,-150.90306
ALASKA,AK,580,DILLINGHAM,70,DILLINGHAM,59.03972,-158.4575
ALASKA,AK,590,DIOMEDE,180,NOME,65.75005,-168.94981
ALASKA,AK,597,DOT LAKE,240,SOUTHEAST FAIRBANKS,63.66139,-144.06444
ALASKA,AK,599,DUNBAR,290,YUKON-KOYUKUK,64.7575,-148.79139
ALASKA,AK,598,DUNCAN CANAL,195,PETERSBURG,56.63972,-133.11194
ALASKA,AK,604,DUTCH HARBOR,16,ALEUTIANS WEST,53.8898,-166.5422
ALASKA,AK,610,EAGLE,240,SOUTHEAST FAIRBANKS,61.32139,-149.56778
ALASKA,AK,611,EAGLE RIVER,20,ANCHORAGE,61.32139,-149.56778
ALASKA,AK,615,EAGLE VILLAGE,240,SOUTHEAST FAIRBANKS,64.78056,-141.11361
ALASKA,AK,620,EAST FORK,180,NOME,63.55788,-149.78049
ALASKA,AK,630,EDNA BAY,198,PRINCE OF WALES-HYDER CA,55.95002,-133.66662
ALASKA,AK,640,EEK,50,BETHEL,60.21388,-162.04142
ALASKA,AK,645,EGAVIK,180,NOME,64.04,-160.92484
ALASKA,AK,650,EGEGIK,164,LAKE AND PENINSULA,58.18618,-157.37484
ALASKA,AK,655,EIELSON AIR FORCE BASE,90,FAIRBANKS NORTH STAR,64.66327,-147.05442
ALASKA,AK,665,EKUK,70,DILLINGHAM,58.79793,-158.5521
ALASKA,AK,670,EKWOK,70,DILLINGHAM,59.34972,-157.47528
ALASKA,AK,690,ELFIN COVE,105,HOONAH-ANGOON CA,58.195,-136.34722
ALASKA,AK,700,ELIM,180,NOME,64.61655,-162.26004
ALASKA,AK,710,ELMENDORF AIR FORCE BASE,20,ANCHORAGE,61.25306,-149.79361
ALASKA,AK,728,EMMONAK,158,KUSILVAK CA,62.78019,-164.49044
ALASKA,AK,730,ENGLISH BAY,122,KENAI PENINSULA,59.35451,-151.92261
ALASKA,AK,760,ESTER,90,FAIRBANKS NORTH STAR,64.84722,-148.01444
ALASKA,AK,763,EUREKA,290,YUKON-KOYUKUK,61.93861,-147.16806
ALASKA,AK,765,EVANSVILLE,290,YUKON-KOYUKUK,66.92282,-151.50746
ALASKA,AK,767,EXCURSION INLET,100,HAINES,58.41879,-135.44836
ALASKA,AK,769,EYAK (HISTORICAL),63,CHUGACH CA,60.52629,-145.63512
ALASKA,AK,770,FAIRBANKS,90,FAIRBANKS NORTH STAR,64.83778,-147.71639
ALASKA,AK,780,FALSE PASS,13,ALEUTIANS EAST,54.85133,-163.40766
ALASKA,AK,785,FAREWELL,290,YUKON-KOYUKUK,62.50861,-153.89314
ALASKA,AK,786,FERRY,68,DENALI,64.01667,-149.11667
ALASKA,AK,787,FINK CREEK,188,NORTHWEST ARCTIC,65.89556,-163.01861
ALASKA,AK,789,FISH VILLAGE,158,KUSILVAK CA,62.52111,-163.84333
ALASKA,AK,790,FLAT,290,YUKON-KOYUKUK,57.6175,-136.00111
ALASKA,AK,792,FORT GLENN (HISTORICAL),16,ALEUTIANS WEST,53.37429,-167.89508
ALASKA,AK,795,FORT GREELY,240,SOUTHEAST FAIRBANKS,63.9412,-145.57398
ALASKA,AK,798,FORT RICHARDSON,20,ANCHORAGE,61.25444,-149.68833
ALASKA,AK,801,FORT WAINWRIGHT,90,FAIRBANKS NORTH STAR,64.83179,-147.61601
ALASKA,AK,800,FORT YUKON,290,YUKON-KOYUKUK,66.56472,-145.27389
ALASKA,AK,806,FORT YUKON AIR FORCE STATION,290,YUKON-KOYUKUK,66.56056,-145.21194
ALASKA,AK,810,FOX,90,FAIRBANKS NORTH STAR,53.94073,-165.97595
ALASKA,AK,812,FRITZ CREEK,122,KENAI PENINSULA,59.73611,-151.29528
ALASKA,AK,815,FUNTER BAY,105,HOONAH-ANGOON CA,58.25417,-134.89778
ALASKA,AK,820,GAKONA,66,COPPER RIVER CA,62.30143,-145.30269
ALASKA,AK,830,GALENA,290,YUKON-KOYUKUK,64.73333,-156.9275
ALASKA,AK,840,GAMBELL,180,NOME,63.77921,-171.73463
ALASKA,AK,842,GANES CREEK,290,YUKON-KOYUKUK,63.08972,-156.43056
ALASKA,AK,844,GEORGETOWN,50,BETHEL,61.89389,-157.71778
ALASKA,AK,848,GILDERSLEEVE FLOAT,198,PRINCE OF WALES-HYDER CA,,
ALASKA,AK,850,GIRDWOOD,20,ANCHORAGE,60.9425,-149.16639
ALASKA,AK,870,GLENNALLEN,66,COPPER RIVER CA,62.10917,-145.54639
ALASKA,AK,875,GOLDEN,63,CHUGACH CA,59.74921,-158.87333
ALASKA,AK,880,GOLOVIN,180,NOME,64.54333,-163.03944
ALASKA,AK,884,GOODNEWS BAY,50,BETHEL,59.11889,-161.5875
ALASKA,AK,885,GORDON,185,NORTH SLOPE,62.13167,-143.0875
ALASKA,AK,886,GRANITE MOUNTAIN,180,NOME,65.40456,-161.28205
ALASKA,AK,887,GRANT CREEK,290,YUKON-KOYUKUK,65.1975,-152.92722
ALASKA,AK,892,GRAYLING,290,YUKON-KOYUKUK,62.89504,-160.06536
ALASKA,AK,900,GULKANA,66,COPPER RIVER CA,62.15472,-145.45639
ALASKA,AK,910,GUSTAVUS,105,HOONAH-ANGOON CA,58.41333,-135.73694
ALASKA,AK,920,HAINES,100,HAINES,59.24444,-135.52361
ALASKA,AK,925,HALIBUT COVE,122,KENAI PENINSULA,59.595,-151.225
ALASKA,AK,927,HALLERSVILLE,164,LAKE AND PENINSULA,59.04278,-156.83944
ALASKA,AK,930,HAMILTON,158,KUSILVAK CA,62.89611,-163.89417
ALASKA,AK,932,HARDING LAKE,90,FAIRBANKS NORTH STAR,64.42262,-146.85454
ALASKA,AK,933,HAWK INLET,110,JUNEAU CITY AND BOR,58.12573,-134.75718
ALASKA,AK,934,HAYCOCK,180,NOME,65.20852,-161.15913
ALASKA,AK,950,HEALY,68,DENALI,63.85694,-148.96611
ALASKA,AK,952,HEALY LAKE,240,SOUTHEAST FAIRBANKS,63.99589,-144.69352
ALASKA,AK,954,HERENDEEN BAY,13,ALEUTIANS EAST,55.80139,-160.89925
ALASKA,AK,955,HERRING COVE,130,KETCHIKAN GATEWAY,57.04278,-135.20222
ALASKA,AK,957,HOGATZA,290,YUKON-KOYUKUK,66.18972,-155.71722
ALASKA,AK,959,HOLLIS,198,PRINCE OF WALES-HYDER CA,55.47992,-132.64172
ALASKA,AK,970,HOLY CROSS,290,YUKON-KOYUKUK,62.19944,-159.77139
ALASKA,AK,980,HOMER,122,KENAI PENINSULA,59.6425,-151.5494
ALASKA,AK,1000,HOONAH,105,HOONAH-ANGOON CA,58.7586,-136.23715
ALASKA,AK,1010,HOOPER BAY,158,KUSILVAK CA,61.53111,-166.09667
ALASKA,AK,1020,HOPE,122,KENAI PENINSULA,68.34861,-166.73472
ALASKA,AK,1030,HOUSTON,170,MATANUSKA-SUSITNA,61.63028,-149.81806
ALASKA,AK,1040,HUGHES,290,YUKON-KOYUKUK,66.04458,-154.26036
ALASKA,AK,1054,HUSLIA,290,YUKON-KOYUKUK,65.69461,-156.3593
ALASKA,AK,1060,HYDABURG,198,PRINCE OF WALES-HYDER CA,55.20611,-132.82806
ALASKA,AK,1070,HYDER,198,PRINCE OF WALES-HYDER CA,55.59697,-132.80273
ALASKA,AK,1072,IDITAROD,290,YUKON-KOYUKUK,62.54444,-158.09528
ALASKA,AK,1075,IGIAK (HISTORICAL),158,KUSILVAK CA,61.6175,-165.93361
ALASKA,AK,1084,IGIUGIG,164,LAKE AND PENINSULA,59.32373,-155.90327
ALASKA,AK,1086,IGUSHIK,70,DILLINGHAM,58.70953,-158.8825
ALASKA,AK,1100,ILIAMNA,164,LAKE AND PENINSULA,59.55286,-155.08829
ALASKA,AK,1105,INDIAN MOUNTAIN,290,YUKON-KOYUKUK,65.99339,-153.69633
ALASKA,AK,1106,INGER (HISTORICAL),50,BETHEL,,
ALASKA,AK,1107,INGRIHAK,158,KUSILVAK CA,61.75611,-162.00139
ALASKA,AK,1108,IRON CREEK,180,NOME,63.53902,-150.92434
ALASKA,AK,1109,ITULILIK (HISTORICAL),50,BETHEL,61.37639,-157.04667
ALASKA,AK,1115,IVANOF BAY,164,LAKE AND PENINSULA,55.902,-159.48333
ALASKA,AK,1116,JACK WADE,240,SOUTHEAST FAIRBANKS,64.15417,-141.45972
ALASKA,AK,1117,JAKOLOF BAY,122,KENAI PENINSULA,59.44694,-151.51028
ALASKA,AK,1130,JUNEAU,110,JUNEAU CITY AND BOR,58.30194,-134.41972
ALASKA,AK,1132,KACHEMAK CITY,122,KENAI PENINSULA,59.67448,-151.43677
ALASKA,AK,1140,KAKE,198,PRINCE OF WALES-HYDER CA,56.97583,-133.94722
ALASKA,AK,1142,KAKO LANDING,158,KUSILVAK CA,61.85389,-161.34639
ALASKA,AK,1160,KAKTOVIK,185,NORTH SLOPE,70.13194,-143.62389
ALASKA,AK,1162,KALIFORNSKY,122,KENAI PENINSULA,60.41833,-151.29
ALASKA,AK,1164,KALLA (HISTORICAL),188,NORTHWEST ARCTIC,66.90028,-156.64389
ALASKA,AK,1166,KALLANDS,290,YUKON-KOYUKUK,65.18528,-153.05778
ALASKA,AK,1170,KALSKAG,50,BETHEL,61.53627,-160.34133
ALASKA,AK,1180,KALTAG,290,YUKON-KOYUKUK,64.32722,-158.72194
ALASKA,AK,1182,KANAPAK,158,KUSILVAK CA,61.83444,-163.20222
ALASKA,AK,1184,KANATAK,70,DILLINGHAM,57.53509,-155.90818
ALASKA,AK,1186,KANTISHNA,68,DENALI,63.53933,-150.99131
ALASKA,AK,1200,KARLUK,150,KODIAK ISLAND,57.5658,-154.45314
ALASKA,AK,1210,KASAAN,198,PRINCE OF WALES-HYDER CA,55.5395,-132.40409
ALASKA,AK,1212,KASHEGELOK,50,BETHEL,60.85472,-157.83389
ALASKA,AK,1214,KASHIAGAMIUT,70,DILLINGHAM,59.36944,-160.06472
ALASKA,AK,1232,KASIGLUK,50,BETHEL,60.86991,-162.52446
ALASKA,AK,45,KASIGLUK,50,BETHEL,60.86991,-162.52446
ALASKA,AK,1230,KASILOF,122,KENAI PENINSULA,60.3375,-151.27444
ALASKA,AK,1233,KATALLA,63,CHUGACH CA,60.19645,-144.52798
ALASKA,AK,1240,KENAI,122,KENAI PENINSULA,60.55444,-151.25833
ALASKA,AK,1542,KENNICOTT,66,COPPER RIVER CA,61.48416,-142.88777
ALASKA,AK,1250,KETCHIKAN,130,KETCHIKAN GATEWAY,55.3418,-131.64757
ALASKA,AK,1270,KIANA,188,NORTHWEST ARCTIC,66.975,-160.42278
ALASKA,AK,1275,KINEGNAK,50,BETHEL,62.01667,-162.46667
ALASKA,AK,1280,KING COVE,13,ALEUTIANS EAST,55.06087,-162.31853
ALASKA,AK,1283,KING SALMON,60,BRISTOL BAY,58.67667,-156.64917
ALASKA,AK,1290,KIPNUK,50,BETHEL,59.93306,-164.03083
ALASKA,AK,1295,KISKA ISLAND,16,ALEUTIANS WEST,51.96417,177.46
ALASKA,AK,1300,KIVALINA,188,NORTHWEST ARCTIC,67.72703,-164.53777
ALASKA,AK,1313,KLAWOCK,198,PRINCE OF WALES-HYDER CA,55.55222,-133.09583
ALASKA,AK,1315,KLERY CREEK,188,NORTHWEST ARCTIC,67.17944,-160.40306
ALASKA,AK,1320,KLUKWAN,105,HOONAH-ANGOON CA,59.40389,-135.88444
ALASKA,AK,1325,KNIK,170,MATANUSKA-SUSITNA,61.45748,-149.73108
ALASKA,AK,1330,KOBUK,188,NORTHWEST ARCTIC,66.91075,-156.88407
ALASKA,AK,1340,KODIAK,150,KODIAK ISLAND,57.78852,-152.40533
ALASKA,AK,1342,KODIAK STATION,150,KODIAK ISLAND,57.76587,-152.60004
ALASKA,AK,1344,KOGGIUNG,60,BRISTOL BAY,58.86694,-157.0075
ALASKA,AK,1346,KOKHANOK,164,LAKE AND PENINSULA,59.4339,-154.79801
ALASKA,AK,1350,KOKRINES,290,YUKON-KOYUKUK,64.93778,-154.69194
ALASKA,AK,1355,KOKRUAGAROK,185,NORTH SLOPE,70.915,-153.0725
ALASKA,AK,1360,KOLIGANEK,70,DILLINGHAM,59.7269,-157.26688
ALASKA,AK,1365,KONGIGANAK,50,BETHEL,59.96331,-162.87981
ALASKA,AK,1370,KOTLIK,158,KUSILVAK CA,63.03588,-163.52675
ALASKA,AK,1380,KOTZEBUE,188,NORTHWEST ARCTIC,66.89846,-162.59809
ALASKA,AK,1395,KOYUK,180,NOME,64.93389,-161.15806
ALASKA,AK,1400,KOYUKUK,290,YUKON-KOYUKUK,65.7,-152.71667
ALASKA,AK,1404,KRAVAKSARAK,158,KUSILVAK CA,62.81361,-164.07694
ALASKA,AK,1406,KUPREANOF,195,PETERSBURG,56.79278,-133.49694
ALASKA,AK,1407,KUSKOVAK,50,BETHEL,60.115,-162.50639
ALASKA,AK,1408,KUSTATAN,122,KENAI PENINSULA,60.71658,-151.75313
ALASKA,AK,1410,KVICHAK,164,LAKE AND PENINSULA,58.96576,-156.93334
ALASKA,AK,1420,KWETHLUK,50,BETHEL,60.79354,-161.43916
ALASKA,AK,1430,KWIGILLINGOK,50,BETHEL,59.87978,-163.17053
ALASKA,AK,1435,KWIGORLAK,158,KUSILVAK CA,61.80694,-163.43278
ALASKA,AK,1440,KWIKPAK (HISTORICAL),158,KUSILVAK CA,63.07083,-164.41111
ALASKA,AK,1445,LAGOON,290,YUKON-KOYUKUK,67.91218,-165.02158
ALASKA,AK,1450,LAKE MINCHUMINA,290,YUKON-KOYUKUK,63.88278,-152.31222
ALASKA,AK,1455,LAMONT,158,KUSILVAK CA,62.70667,-164.39639
ALASKA,AK,1460,LARSEN BAY,150,KODIAK ISLAND,57.53511,-153.97842
ALASKA,AK,1465,LATOUCHE,63,CHUGACH CA,60.00487,-147.92105
ALASKA,AK,1490,LEVELOCK,164,LAKE AND PENINSULA,59.12701,-156.86255
ALASKA,AK,1494,LIME VILLAGE,50,BETHEL,61.35639,-155.43556
ALASKA,AK,1496,LITTLE PORT WALTER,220,SITKA,56.38393,-134.64393
ALASKA,AK,1500,LIVENGOOD,290,YUKON-KOYUKUK,65.47186,-148.65556
ALASKA,AK,1504,LONG,290,YUKON-KOYUKUK,65.99339,-153.69633
ALASKA,AK,1505,LONG ISLAND,170,MATANUSKA-SUSITNA,56.99944,-135.35167
ALASKA,AK,1506,LORING,130,KETCHIKAN GATEWAY,55.59856,-131.64054
ALASKA,AK,1508,LOST RIVER,180,NOME,62.07292,-146.18546
ALASKA,AK,1510,LOWER KALSKAG,50,BETHEL,61.51222,-160.35806
ALASKA,AK,1515,LOWER TONSINA,66,COPPER RIVER CA,61.655,-144.65861
ALASKA,AK,1520,MAKUSHIN,16,ALEUTIANS WEST,53.88588,-166.94047
ALASKA,AK,1535,MANLEY HOT SPRINGS,290,YUKON-KOYUKUK,64.9975,-150.64389
ALASKA,AK,1540,MANOKOTAK,70,DILLINGHAM,58.98897,-159.04997
ALASKA,AK,1539,MARSHALL,158,KUSILVAK CA,61.87778,-162.08111
ALASKA,AK,1541,MARY'S IGLOO,180,NOME,65.1452,-165.06798
ALASKA,AK,1543,MAY CREEK,66,COPPER RIVER CA,61.3321,-142.68011
ALASKA,AK,1544,MCGRATH,290,YUKON-KOYUKUK,62.95278,-155.60556
ALASKA,AK,1546,MCKINLEY PARK,68,DENALI,63.7325,-148.91056
ALASKA,AK,1550,MEADE RIVER,185,NORTH SLOPE,70.46917,-157.39944
ALASKA,AK,1580,MEDFRA,290,YUKON-KOYUKUK,63.10667,-154.71417
ALASKA,AK,1590,MEKORYUK,50,BETHEL,60.37139,-166.27056
ALASKA,AK,1597,MENTASTA LAKE,66,COPPER RIVER CA,62.92111,-143.76917
ALASKA,AK,1600,METLAKATLA,198,PRINCE OF WALES-HYDER CA,55.12905,-131.57698
ALASKA,AK,1604,MEYERS CHUCK,275,WRANGELL,55.74083,-132.25639
ALASKA,AK,1607,MILLER HOUSE,290,YUKON-KOYUKUK,65.52366,-145.22505
ALASKA,AK,1617,MONTANA,170,MATANUSKA-SUSITNA,62.14333,-150.06389
ALASKA,AK,1618,MOOSE CREEK,90,FAIRBANKS NORTH STAR,62.22597,-152.68065
ALASKA,AK,1620,MOOSE PASS,122,KENAI PENINSULA,60.48759,-149.37059
ALASKA,AK,1623,MOSES POINT,180,NOME,64.69472,-162.06215
ALASKA,AK,1650,MOUNTAIN POINT,130,KETCHIKAN GATEWAY,60.82,-146.63778
ALASKA,AK,1664,MOUNTAIN VILLAGE,158,KUSILVAK CA,62.09468,-163.68527
ALASKA,AK,1665,MUD BAY,130,KETCHIKAN GATEWAY,59.15972,-135.37583
ALASKA,AK,1666,MURPHY DOME AIR FORCE STATION,90,FAIRBANKS NORTH STAR,64.95222,-148.35861
ALASKA,AK,1668,NAKEEN,164,LAKE AND PENINSULA,58.93203,-157.04376
ALASKA,AK,1704,NAPAIMUTE,50,BETHEL,59.43333,-154.86667
ALASKA,AK,1740,NAPAKIAK,50,BETHEL,60.69344,-161.97779
ALASKA,AK,1744,NAPASKIAK,50,BETHEL,60.7069,-161.77325
ALASKA,AK,1750,NASH HARBOR,50,BETHEL,60.20464,-166.94163
ALASKA,AK,6,NAVAL AIR STATION ADAK (HISTORICAL),16,ALEUTIANS WEST,51.88158,-176.6481
ALASKA,AK,1758,NELSON LAGOON,13,ALEUTIANS EAST,56.00796,-161.16755
ALASKA,AK,1760,NENANA,290,YUKON-KOYUKUK,64.56341,-149.09577
ALASKA,AK,1775,NEW HAMILTON,158,KUSILVAK CA,62.89611,-163.89417
ALASKA,AK,1800,NEW STUYAHOK,70,DILLINGHAM,59.45002,-157.37151
ALASKA,AK,1770,NEWHALEN,164,LAKE AND PENINSULA,59.72,-154.89722
ALASKA,AK,1805,NEWTOK,50,BETHEL,60.93675,-164.63801
ALASKA,AK,1810,NIGHTMUTE,50,BETHEL,60.47275,-164.6994
ALASKA,AK,1820,NIKOLAI,290,YUKON-KOYUKUK,63.01856,-154.35834
ALASKA,AK,1830,NIKOLSKI,16,ALEUTIANS WEST,52.93897,-168.86141
ALASKA,AK,1850,NINILCHIK,122,KENAI PENINSULA,60.05035,-151.66819
ALASKA,AK,1860,NOATAK,188,NORTHWEST ARCTIC,67.56529,-162.97389
ALASKA,AK,1865,NOGAMUT (HISTORICAL),50,BETHEL,61.01944,-157.67444
ALASKA,AK,1870,NOME,180,NOME,64.50111,-165.40639
ALASKA,AK,1880,NONDALTON,164,LAKE AND PENINSULA,59.97361,-154.84583
ALASKA,AK,1890,NOORVIK,188,NORTHWEST ARCTIC,66.83833,-161.03278
ALASKA,AK,1895,NORTH POLE,90,FAIRBANKS NORTH STAR,64.75111,-147.34944
ALASKA,AK,1898,NORTHWAY,240,SOUTHEAST FAIRBANKS,62.96111,-141.92889
ALASKA,AK,1899,NORTHWAY VILLAGE,240,SOUTHEAST FAIRBANKS,62.98222,-141.95167
ALASKA,AK,1902,NUCHEK (HISTORICAL),63,CHUGACH CA,60.33333,-146.65528
ALASKA,AK,1904,NUIQSUT,185,NORTH SLOPE,70.21028,-151.00472
ALASKA,AK,1910,NULATO,290,YUKON-KOYUKUK,64.71944,-158.10306
ALASKA,AK,1920,NUNACHUAK,70,DILLINGHAM,59.59667,-157.05833
ALASKA,AK,2330,NUNAM IQUA,158,KUSILVAK CA,62.52406,-164.84415
ALASKA,AK,1922,NUNAPITCHUK,50,BETHEL,60.89694,-162.45944
ALASKA,AK,1924,NUSHAGAK,70,DILLINGHAM,58.79944,-158.6325
ALASKA,AK,1940,NYAC,50,BETHEL,60.9787,-160.00205
ALASKA,AK,1950,OHOGAMIUT,158,KUSILVAK CA,61.56778,-161.86361
ALASKA,AK,1960,OLD HARBOR,150,KODIAK ISLAND,57.2026,-153.30586
ALASKA,AK,1610,OLD MINTO,290,YUKON-KOYUKUK,64.88722,-149.17472
ALASKA,AK,1965,OLD RAMPART,290,YUKON-KOYUKUK,67.16444,-141.67083
ALASKA,AK,2750,OLD VALDEZ,63,CHUGACH CA,61.13083,-146.34833
ALASKA,AK,1970,OPHIR,290,YUKON-KOYUKUK,63.14731,-156.53263
ALASKA,AK,1980,OSCARVILLE,50,BETHEL,60.72278,-161.77
ALASKA,AK,1983,OUZINKIE,150,KODIAK ISLAND,57.92273,-152.50123
ALASKA,AK,1985,PAIMIUT,158,KUSILVAK CA,61.96478,-160.24092
ALASKA,AK,2000,PALMER,170,MATANUSKA-SUSITNA,61.59941,-149.11456
ALASKA,AK,2010,PAULOFF HARBOR,13,ALEUTIANS EAST,54.45515,-162.70076
ALASKA,AK,2015,PAXSON,66,COPPER RIVER CA,63.0243,-145.49692
ALASKA,AK,2020,PEDRO BAY,164,LAKE AND PENINSULA,59.79701,-154.12964
ALASKA,AK,2025,PEDRO DOME,90,FAIRBANKS NORTH STAR,65.03417,-147.49917
ALASKA,AK,2030,PELICAN,105,HOONAH-ANGOON CA,57.96074,-136.22987
ALASKA,AK,2032,PENINSULA POINT,130,KETCHIKAN GATEWAY,57.58036,-157.5701
ALASKA,AK,2033,PENNOCK ISLAND,130,KETCHIKAN GATEWAY,55.31972,-131.62806
ALASKA,AK,2034,PERKINSVILLE,180,NOME,64.55056,-165.415
ALASKA,AK,2035,PERRYVILLE,164,LAKE AND PENINSULA,55.90903,-159.15846
ALASKA,AK,2040,PETERSBURG,195,PETERSBURG,56.8125,-132.95556
ALASKA,AK,2042,PETERSVILLE,170,MATANUSKA-SUSITNA,62.49639,-150.76556
ALASKA,AK,2044,PIKMIKTALIK,158,KUSILVAK CA,63.23611,-162.5925
ALASKA,AK,2046,PILGRIM SPRINGS,180,NOME,65.09272,-164.92297
ALASKA,AK,2060,PILOT POINT,164,LAKE AND PENINSULA,57.58036,-157.5701
ALASKA,AK,2070,PILOT STATION,158,KUSILVAK CA,61.96325,-162.93527
ALASKA,AK,2080,PITKAS POINT,158,KUSILVAK CA,62.03278,-163.28778
ALASKA,AK,2090,PLATINUM,50,BETHEL,59.01555,-161.82308
ALASKA,AK,2100,POINT BAKER,198,PRINCE OF WALES-HYDER CA,56.35816,-133.62891
ALASKA,AK,2105,POINT HOPE,185,NORTH SLOPE,68.34861,-166.73472
ALASKA,AK,2110,POINT LAY,185,NORTH SLOPE,69.73302,-163.01568
ALASKA,AK,2120,POINT MCINTYRE,185,NORTH SLOPE,70.39722,-148.5875
ALASKA,AK,2122,POINT WHITSHED,63,CHUGACH CA,60.44778,-145.88278
ALASKA,AK,2125,POORMAN,290,YUKON-KOYUKUK,64.09944,-155.54389
ALASKA,AK,2140,PORT ALEXANDER,198,PRINCE OF WALES-HYDER CA,56.24667,-134.64806
ALASKA,AK,2141,PORT ALSWORTH,164,LAKE AND PENINSULA,60.2019,-154.32429
ALASKA,AK,2142,PORT BAILEY,150,KODIAK ISLAND,57.93135,-153.04547
ALASKA,AK,2143,PORT CLARENCE,180,NOME,65.25361,-166.85833
ALASKA,AK,2145,PORT FREDERICK,105,HOONAH-ANGOON CA,58.11537,-135.454
ALASKA,AK,2160,PORT GRAHAM,122,KENAI PENINSULA,59.35091,-151.83215
ALASKA,AK,2163,PORT HEIDEN,164,LAKE AND PENINSULA,56.95889,-158.6325
ALASKA,AK,2164,PORT HOBRON,150,KODIAK ISLAND,57.15997,-153.15493
ALASKA,AK,2165,PORT LIONS,150,KODIAK ISLAND,57.8675,-152.88222
ALASKA,AK,2170,PORT MOLLER,13,ALEUTIANS EAST,56.00599,-160.55986
ALASKA,AK,2171,PORT NELLIE JUAN,63,CHUGACH CA,60.55306,-148.2375
ALASKA,AK,1815,PORT NIKISKI,122,KENAI PENINSULA,60.68333,-151.37889
ALASKA,AK,2172,PORT O'BRIEN,150,KODIAK ISLAND,57.73079,-153.3191
ALASKA,AK,2168,PORTAGE,20,ANCHORAGE,58.90677,-157.71211
ALASKA,AK,2166,PORTAGE CREEK,70,DILLINGHAM,58.90677,-157.71211
ALASKA,AK,2167,PORTLOCK,122,KENAI PENINSULA,58.33333,-150.5
ALASKA,AK,2173,PRUDHOE BAY,185,NORTH SLOPE,70.25528,-148.33722
ALASKA,AK,2174,PTARMIGAN,63,CHUGACH CA,61.05972,-149.60278
ALASKA,AK,2175,QUINHAGAK,50,BETHEL,59.74889,-161.91583
ALASKA,AK,2180,RAMPART,290,YUKON-KOYUKUK,65.51091,-150.14877
ALASKA,AK,2183,RED DEVIL,50,BETHEL,61.78452,-157.34176
ALASKA,AK,2185,RICHARDSON,90,FAIRBANKS NORTH STAR,61.25444,-149.68833
ALASKA,AK,2190,RUBY,290,YUKON-KOYUKUK,64.73944,-155.48694
ALASKA,AK,2200,RUSSIAN MISSION,158,KUSILVAK CA,61.77994,-161.31765
ALASKA,AK,2205,SAGWON,185,NORTH SLOPE,69.37835,-148.68888
ALASKA,AK,2210,SAINT GEORGE,16,ALEUTIANS WEST,56.57766,-169.66302
ALASKA,AK,2217,SAINT MARY'S,158,KUSILVAK CA,62.05877,-163.29765
ALASKA,AK,2220,SAINT MICHAEL,180,NOME,63.4902,-162.1101
ALASKA,AK,2230,SAINT PAUL,16,ALEUTIANS WEST,57.78852,-152.40533
ALASKA,AK,2232,SALAMATOF,122,KENAI PENINSULA,60.61538,-151.31944
ALASKA,AK,2233,SALCHA,90,FAIRBANKS NORTH STAR,64.52399,-146.9021
ALASKA,AK,2235,SALMON,290,YUKON-KOYUKUK,58.67667,-156.64917
ALASKA,AK,2236,SANAK,13,ALEUTIANS EAST,54.42972,-162.70889
ALASKA,AK,2238,SAND BAY,13,ALEUTIANS EAST,52.22472,-174.28694
ALASKA,AK,2240,SAND POINT,13,ALEUTIANS EAST,55.33597,-160.50071
ALASKA,AK,2250,SAVOONGA,180,NOME,63.68639,-170.4925
ALASKA,AK,2260,SAXMAN,130,KETCHIKAN GATEWAY,55.31971,-131.59638
ALASKA,AK,2270,SCAMMON BAY,158,KUSILVAK CA,61.84467,-165.57998
ALASKA,AK,2275,SCOW BAY,195,PETERSBURG,56.77028,-132.96028
ALASKA,AK,2280,SELAWIK,188,NORTHWEST ARCTIC,66.60389,-160.00694
ALASKA,AK,2290,SELDOVIA,122,KENAI PENINSULA,59.43806,-151.71139
ALASKA,AK,2295,SERPENTINE HOT SPRINGS,180,NOME,65.85694,-164.71417
ALASKA,AK,2300,SEWARD,122,KENAI PENINSULA,60.10426,-149.4435
ALASKA,AK,2310,SHAGELUK,290,YUKON-KOYUKUK,62.68222,-159.56194
ALASKA,AK,2320,SHAKTOOLIK,180,NOME,64.36623,-161.21579
ALASKA,AK,2334,SHEMYA STATION,16,ALEUTIANS WEST,52.71369,174.11508
ALASKA,AK,2340,SHISHMAREF,180,NOME,66.25306,-166.07927
ALASKA,AK,2342,SHORELINE DRIVE,130,KETCHIKAN GATEWAY,55.375,-131.725
ALASKA,AK,2350,SHUNGNAK,188,NORTHWEST ARCTIC,66.88497,-157.15409
ALASKA,AK,2355,SINUK (HISTORICAL),180,NOME,65.35,-166.55
ALASKA,AK,2360,SITKA,220,SITKA,57.05315,-135.33088
ALASKA,AK,2365,SITUK,282,YAKUTAT CITY AND BOR,59.64253,-139.4022
ALASKA,AK,2370,SKAGWAY,230,SKAGWAY MUNICIPALITY,59.45833,-135.31389
ALASKA,AK,2380,SKWENTNA,170,MATANUSKA-SUSITNA,61.96528,-151.19111
ALASKA,AK,2385,SLANA,66,COPPER RIVER CA,62.70694,-143.96111
ALASKA,AK,2400,SLEETMUTE,50,BETHEL,61.70917,-157.15556
ALASKA,AK,2407,SOLDOTNA,122,KENAI PENINSULA,60.48778,-151.05833
ALASKA,AK,2410,SOLOMON,180,NOME,64.55961,-164.4431
ALASKA,AK,2415,SOURDOUGH (HISTORICAL),66,COPPER RIVER CA,62.5289,-145.51723
ALASKA,AK,2422,SOUTH BJERREMARK,90,FAIRBANKS NORTH STAR,64.82389,-147.87583
ALASKA,AK,1700,SOUTH NAKNEK,60,BRISTOL BAY,58.70424,-157.00655
ALASKA,AK,2423,SOUTH NAKNEK,60,BRISTOL BAY,58.70424,-157.00655
ALASKA,AK,2420,SPARREVOHN STATION,50,BETHEL,61.10306,-155.5775
ALASKA,AK,2435,SQUAW HARBOR,13,ALEUTIANS EAST,55.24163,-160.55098
ALASKA,AK,2450,STEBBINS,180,NOME,63.52009,-162.28871
ALASKA,AK,2455,STERLING,122,KENAI PENINSULA,60.53722,-150.76472
ALASKA,AK,2458,STERLING LANDING,290,YUKON-KOYUKUK,62.86639,-155.66444
ALASKA,AK,2462,STEVENS VILLAGE,290,YUKON-KOYUKUK,66.00639,-149.09083
ALASKA,AK,2464,STONY RIVER,50,BETHEL,61.78725,-156.58997
ALASKA,AK,2465,STUYAHOK,158,KUSILVAK CA,59.45002,-157.37151
ALASKA,AK,2466,SULATNA CROSSING,290,YUKON-KOYUKUK,64.18917,-155.46361
ALASKA,AK,2467,SULLIVAN CAMP,180,NOME,65.06667,-166.2
ALASKA,AK,2468,SUMMIT,68,DENALI,63.33596,-149.11485
ALASKA,AK,2469,SUNRISE,122,KENAI PENINSULA,60.8903,-149.42402
ALASKA,AK,2471,SUNSHINE,170,MATANUSKA-SUSITNA,62.18134,-150.05017
ALASKA,AK,2470,SUNTRANA,68,DENALI,63.85681,-148.84939
ALASKA,AK,2473,SUSITNA,170,MATANUSKA-SUSITNA,61.5809,-149.4415
ALASKA,AK,2475,SUTTON,170,MATANUSKA-SUSITNA,61.77789,-148.7645
ALASKA,AK,2480,TAKOTNA,290,YUKON-KOYUKUK,62.98861,-156.06417
ALASKA,AK,2500,TALKEETNA,170,MATANUSKA-SUSITNA,62.32167,-150.09389
ALASKA,AK,2510,TANACROSS,240,SOUTHEAST FAIRBANKS,63.37151,-143.33897
ALASKA,AK,2520,TANANA,290,YUKON-KOYUKUK,65.17115,-152.07966
ALASKA,AK,2535,TATALINA AIR FORCE STATION,290,YUKON-KOYUKUK,62.91417,-156.01361
ALASKA,AK,2540,TATITLEK,63,CHUGACH CA,60.87183,-146.68809
ALASKA,AK,2542,TAYLOR,180,NOME,65.67396,-164.79994
ALASKA,AK,2544,TAYLOR CREEK,70,DILLINGHAM,64.46667,-165.1
ALASKA,AK,2546,TAZLINA,66,COPPER RIVER CA,61.87381,-146.45451
ALASKA,AK,2552,TELIDA,290,YUKON-KOYUKUK,63.38047,-153.28031
ALASKA,AK,2555,TELLER,180,NOME,65.26332,-166.36303
ALASKA,AK,2570,TENAKEE SPRINGS,105,HOONAH-ANGOON CA,57.78083,-135.21889
ALASKA,AK,2580,TETLIN,240,SOUTHEAST FAIRBANKS,63.09227,-142.75304
ALASKA,AK,2585,TETLIN JUNCTION,240,SOUTHEAST FAIRBANKS,63.31222,-142.60167
ALASKA,AK,2595,THORNE BAY,198,PRINCE OF WALES-HYDER CA,55.68177,-132.52445
ALASKA,AK,2615,TIN CITY,180,NOME,65.56306,-167.92139
ALASKA,AK,2618,TOFTY,290,YUKON-KOYUKUK,65.09333,-150.87722
ALASKA,AK,2620,TOGIAK,70,DILLINGHAM,59.05278,-160.39667
ALASKA,AK,2630,TOK,240,SOUTHEAST FAIRBANKS,63.33667,-142.98556
ALASKA,AK,2631,TOKLAT,290,YUKON-KOYUKUK,63.52407,-150.04962
ALASKA,AK,2632,TOKSOOK BAY,50,BETHEL,60.53778,-165.08802
ALASKA,AK,2638,TONSINA,66,COPPER RIVER CA,61.65583,-145.17528
ALASKA,AK,2640,TRAPPER CREEK,170,MATANUSKA-SUSITNA,62.31667,-150.23139
ALASKA,AK,2650,TULUKSAK,50,BETHEL,61.1025,-160.96167
ALASKA,AK,2662,TUNTUTULIAK,50,BETHEL,60.34306,-162.66306
ALASKA,AK,2664,TUNUNAK,50,BETHEL,60.58245,-165.26165
ALASKA,AK,2666,TWIN HILLS,70,DILLINGHAM,59.07562,-160.27304
ALASKA,AK,2667,TWIN PEAKS,130,KETCHIKAN GATEWAY,61.2475,-149.50417
ALASKA,AK,2668,TWO RIVERS,90,FAIRBANKS NORTH STAR,64.87222,-147.03833
ALASKA,AK,2669,TYEE (HISTORICAL),105,HOONAH-ANGOON CA,57.04263,-134.54414
ALASKA,AK,2670,TYONEK,122,KENAI PENINSULA,61.06806,-151.13694
ALASKA,AK,2675,UGANIK,150,KODIAK ISLAND,57.88694,-153.35611
ALASKA,AK,2680,UGASHIK,164,LAKE AND PENINSULA,57.52406,-157.39098
ALASKA,AK,2683,UKIVOK,180,NOME,64.96227,-168.0685
ALASKA,AK,2687,UMIAT,185,NORTH SLOPE,69.37083,-152.13556
ALASKA,AK,2688,UMKUMUTE,50,BETHEL,60.49965,-165.19886
ALASKA,AK,2700,UNALAKLEET,180,NOME,63.87306,-160.78806
ALASKA,AK,2710,UNALASKA,16,ALEUTIANS WEST,53.87413,-166.53408
ALASKA,AK,2720,UNGA,13,ALEUTIANS EAST,55.18255,-160.50822
ALASKA,AK,2722,UNGALIKTHLUK,70,DILLINGHAM,58.9375,-160.13944
ALASKA,AK,2724,UNIMAK,16,ALEUTIANS WEST,54.76833,-164.18667
ALASKA,AK,2725,UPPER KALSKAG,50,BETHEL,61.53722,-160.30528
ALASKA,AK,2730,USIBELLI,68,DENALI,63.86139,-148.78028
ALASKA,AK,2732,USIBELLI MINE,68,DENALI,63.86306,-148.77778
ALASKA,AK,2735,UTICA,188,NORTHWEST ARCTIC,65.91667,-162.98333
ALASKA,AK,237,UTQIAGVIK,185,NORTH SLOPE,71.29058,-156.78872
ALASKA,AK,2740,UYAK,150,KODIAK ISLAND,52.20406,-174.1536
ALASKA,AK,2760,VENETIE,290,YUKON-KOYUKUK,67.00672,-146.38195
ALASKA,AK,2765,VENETIE LANDING,290,YUKON-KOYUKUK,66.61056,-145.99222
ALASKA,AK,2770,WAINWRIGHT,185,NORTH SLOPE,70.63752,-160.01022
ALASKA,AK,2780,WALES,180,NOME,55.59697,-132.80273
ALASKA,AK,2782,WARD COVE,130,KETCHIKAN GATEWAY,55.41194,-131.72278
ALASKA,AK,2790,WASILLA,170,MATANUSKA-SUSITNA,61.5809,-149.4415
ALASKA,AK,1900,WHALE PASS,198,PRINCE OF WALES-HYDER CA,56.11581,-133.12296
ALASKA,AK,2810,WHITE MOUNTAIN,180,NOME,64.68795,-163.40905
ALASKA,AK,2820,WHITTIER,63,CHUGACH CA,60.7746,-148.68585
ALASKA,AK,2823,WILLOW,170,MATANUSKA-SUSITNA,61.74722,-150.0375
ALASKA,AK,2827,WISEMAN,290,YUKON-KOYUKUK,67.40733,-150.11332
ALASKA,AK,2840,WOODY ISLAND,150,KODIAK ISLAND,57.78143,-152.35123
ALASKA,AK,2850,WRANGELL,275,WRANGELL,56.47083,-132.37667
ALASKA,AK,2860,YAKUTAT,282,YAKUTAT CITY AND BOR,59.66667,-139.13333
ALASKA,AK,2865,YORK,180,NOME,56.35583,-132.83583
ARIZONA,AZ,5,AGUILA,13,MARICOPA,33.94281,-113.17408
ARIZONA,AZ,10,AJO,19,PIMA,32.37172,-112.86071
ARIZONA,AZ,12,AK CHIN,21,PINAL,32.99045,-111.91716
ARIZONA,AZ,15,ALPINE,1,APACHE,33.84811,-109.14313
ARIZONA,AZ,17,AMADO,23,SANTA CRUZ,31.70787,-111.06454
ARIZONA,AZ,22,APACHE JUNCTION,21,PINAL,33.41505,-111.54958
ARIZONA,AZ,24,ARIVACA,19,PIMA,31.72731,-111.0612
ARIZONA,AZ,25,ARIZONA CITY,21,PINAL,32.7559,-111.55484
ARIZONA,AZ,26,ARIZONA SUN SITES,3,COCHISE,31.91675,-109.95896
ARIZONA,AZ,327,ARLINGTON,1,APACHE,33.3256,-112.76406
ARIZONA,AZ,28,ASH FORK,25,YAVAPAI,35.22501,-112.48407
ARIZONA,AZ,30,AVONDALE,13,MARICOPA,33.4356,-112.3496
ARIZONA,AZ,33,BAGDAD,25,YAVAPAI,34.5948,-113.16889
ARIZONA,AZ,34,BAPCHULE,21,PINAL,33.13644,-111.87319
ARIZONA,AZ,35,BEARDSLEY,13,MARICOPA,33.66143,-112.37905
ARIZONA,AZ,37,BELLEMONT,5,COCONINO,35.23807,-111.8335
ARIZONA,AZ,40,BENSON,3,COCHISE,31.96786,-110.29452
ARIZONA,AZ,53,BLACK CANYON CITY,25,YAVAPAI,34.07087,-112.15071
ARIZONA,AZ,52,BLUE,11,GREENLEE,33.61006,-109.10674
ARIZONA,AZ,54,BLUE GAP,1,APACHE,36.17084,-109.94651
ARIZONA,AZ,55,BOUSE,27,YUMA,33.93252,-114.00577
ARIZONA,AZ,56,BOWIE,3,COCHISE,32.32647,-109.48701
ARIZONA,AZ,60,BUCKEYE,13,MARICOPA,33.37032,-112.58378
ARIZONA,AZ,59,BULLHEAD CITY,15,MOHAVE,35.14778,-114.5683
ARIZONA,AZ,62,BUMBLE BEE,25,YAVAPAI,34.20086,-112.15294
ARIZONA,AZ,63,BYLAS,9,GRAHAM,33.13428,-110.12004
ARIZONA,AZ,64,CAMERON,5,COCONINO,35.87583,-111.41292
ARIZONA,AZ,65,CAMP VERDE,25,YAVAPAI,34.56364,-111.85432
ARIZONA,AZ,68,CAREFREE,13,MARICOPA,33.82226,-111.9182
ARIZONA,AZ,70,CASA GRANDE,21,PINAL,32.8795,-111.75735
ARIZONA,AZ,72,CASHION,13,MARICOPA,33.43532,-112.29793
ARIZONA,AZ,73,CATALINA,19,PIMA,32.29785,-110.9187
ARIZONA,AZ,74,CAVE CREEK,13,MARICOPA,33.83333,-111.95083
ARIZONA,AZ,77,CENTRAL,9,GRAHAM,32.86757,-109.79286
ARIZONA,AZ,79,CHAMBERS,1,APACHE,35.18864,-109.43316
ARIZONA,AZ,80,CHANDLER,13,MARICOPA,33.30616,-111.84125
ARIZONA,AZ,75,CHANDLER HEIGHTS,13,MARICOPA,33.212,-111.68624
ARIZONA,AZ,81,CHILCHINBITO,17,NAVAJO,36.52361,-110.04734
ARIZONA,AZ,87,CHILDS,19,PIMA,32.45283,-112.84349
ARIZONA,AZ,83,CHINLE,1,APACHE,36.15445,-109.55261
ARIZONA,AZ,82,CHINO VALLEY,25,YAVAPAI,34.75752,-112.45378
ARIZONA,AZ,84,CHLORIDE,15,MOHAVE,35.41444,-114.1994
ARIZONA,AZ,85,CIBECUE,17,NAVAJO,34.04477,-110.48539
ARIZONA,AZ,88,CIBOLA,12,LA PAZ,33.29769,-114.69196
ARIZONA,AZ,90,CLARKDALE,25,YAVAPAI,34.77113,-112.05794
ARIZONA,AZ,95,CLAY SPRINGS,17,NAVAJO,34.36171,-110.2954
ARIZONA,AZ,86,CLAYPOOL,7,GILA,33.41117,-110.84261
ARIZONA,AZ,100,CLIFTON,11,GREENLEE,33.0509,-109.29618
ARIZONA,AZ,103,COCHISE,3,COCHISE,31.55454,-110.30369
ARIZONA,AZ,104,COLORADO CITY,15,MOHAVE,36.95221,-113.01716
ARIZONA,AZ,106,CONCHO,1,APACHE,34.47531,-109.60594
ARIZONA,AZ,105,CONGRESS,25,YAVAPAI,34.16253,-112.85074
ARIZONA,AZ,108,CONTINENTAL,19,PIMA,31.85231,-110.97481
ARIZONA,AZ,110,COOLIDGE,21,PINAL,32.97784,-111.51762
ARIZONA,AZ,116,CORNVILLE,25,YAVAPAI,34.7178,-111.92154
ARIZONA,AZ,117,CORONA DE TUCSON,19,PIMA,31.96536,-110.77564
ARIZONA,AZ,118,CORTARO,19,PIMA,32.35618,-111.08843
ARIZONA,AZ,120,COTTONWOOD,1,APACHE,36.07306,-109.89234
ARIZONA,AZ,121,COVE,1,APACHE,36.56528,-109.21788
ARIZONA,AZ,122,CROWN KING,25,YAVAPAI,34.20559,-112.3385
ARIZONA,AZ,123,DATELAND,27,YUMA,32.79644,-113.54103
ARIZONA,AZ,125,DAVIS DAM,15,MOHAVE,35.19917,-114.57108
ARIZONA,AZ,127,DAVIS-MONTHAN AIR FORCE BASE,19,PIMA,32.16894,-110.88067
ARIZONA,AZ,128,DENNEHOTSO,1,APACHE,36.84584,-109.8465
ARIZONA,AZ,132,DESERT VIEW,5,COCONINO,36.04165,-111.8246
ARIZONA,AZ,126,DEWEY-HUMBOLDT,25,YAVAPAI,34.53,-112.24222
ARIZONA,AZ,124,DIAMOND VALLEY,25,YAVAPAI,34.56808,-112.37517
ARIZONA,AZ,131,DILKON,17,NAVAJO,35.38529,-110.32068
ARIZONA,AZ,135,DOLAN SPRINGS,15,MOHAVE,35.59194,-114.27329
ARIZONA,AZ,129,DOS CABEZAS,3,COCHISE,32.20841,-109.5759
ARIZONA,AZ,130,DOUGLAS,3,COCHISE,31.87964,-109.75126
ARIZONA,AZ,137,DRAGOON,3,COCHISE,32.02814,-110.03868
ARIZONA,AZ,140,DUNCAN,11,GREENLEE,32.72146,-109.10534
ARIZONA,AZ,150,EAGAR,1,APACHE,34.11124,-109.29238
ARIZONA,AZ,152,EDEN,9,GRAHAM,32.96117,-109.89536
ARIZONA,AZ,155,EHRENBERG,12,LA PAZ,33.60419,-114.52523
ARIZONA,AZ,158,EL MIRAGE,13,MARICOPA,33.61309,-112.3246
ARIZONA,AZ,156,ELFRIDA,3,COCHISE,31.68537,-109.68701
ARIZONA,AZ,157,ELGIN,23,SANTA CRUZ,31.65981,-110.52536
ARIZONA,AZ,160,ELOY,21,PINAL,32.7559,-111.55484
ARIZONA,AZ,165,FAIRBANK (HISTORICAL),3,COCHISE,31.72315,-110.18841
ARIZONA,AZ,166,FALCON ESTATES,13,MARICOPA,,
ARIZONA,AZ,170,FLAGSTAFF,5,COCONINO,35.19807,-111.65127
ARIZONA,AZ,180,FLORENCE,21,PINAL,33.03145,-111.38734
ARIZONA,AZ,179,FOREST LAKES ESTATES,5,COCONINO,34.33893,-110.79985
ARIZONA,AZ,181,FORT APACHE,17,NAVAJO,33.79061,-109.98871
ARIZONA,AZ,183,FORT DEFIANCE,1,APACHE,35.74446,-109.07648
ARIZONA,AZ,188,FORT GRANT,9,GRAHAM,32.62285,-109.94591
ARIZONA,AZ,185,FORT HUACHUCA,3,COCHISE,31.56161,-110.34732
ARIZONA,AZ,184,FORT MCDOWELL,13,MARICOPA,33.63671,-111.67458
ARIZONA,AZ,178,FORT MOHAVE,15,MOHAVE,35.04306,-114.62247
ARIZONA,AZ,182,FORT THOMAS,9,GRAHAM,33.037,-109.96536
ARIZONA,AZ,192,FOUNTAIN HILLS,13,MARICOPA,33.61171,-111.71736
ARIZONA,AZ,191,FRANKLIN,11,GREENLEE,32.67757,-109.07923
ARIZONA,AZ,186,FREDONIA,5,COCONINO,36.94554,-112.52659
ARIZONA,AZ,187,FRY,3,COCHISE,31.55676,-110.29508
ARIZONA,AZ,193,GADSDEN,27,YUMA,32.5545,-114.78496
ARIZONA,AZ,195,GANADO,1,APACHE,35.7114,-109.54205
ARIZONA,AZ,189,GILA BEND,13,MARICOPA,32.94782,-112.71683
ARIZONA,AZ,190,GILBERT,13,MARICOPA,33.35283,-111.78903
ARIZONA,AZ,200,GLENDALE,13,MARICOPA,33.53865,-112.18599
ARIZONA,AZ,210,GLOBE,7,GILA,33.39422,-110.7865
ARIZONA,AZ,216,GOLD CANYON,21,PINAL,33.37145,-111.43691
ARIZONA,AZ,217,GOLDEN VALLEY,15,MOHAVE,35.22333,-114.22301
ARIZONA,AZ,220,GOODYEAR,13,MARICOPA,33.43532,-112.35821
ARIZONA,AZ,223,GRAND CANYON,5,COCONINO,34.5003,-111.50098
ARIZONA,AZ,221,GREASEWOOD,17,NAVAJO,35.52251,-109.85734
ARIZONA,AZ,219,GREEN VALLEY,19,PIMA,31.85425,-110.9937
ARIZONA,AZ,222,GREER,1,APACHE,34.01005,-109.4587
ARIZONA,AZ,227,GUADALUPE,13,MARICOPA,33.37088,-111.96292
ARIZONA,AZ,226,HACKBERRY,15,MOHAVE,35.36916,-113.72716
ARIZONA,AZ,231,HAPPY JACK,5,COCONINO,34.74335,-111.40737
ARIZONA,AZ,229,HAVASUPAI INDIAN RESER,5,COCONINO,,
ARIZONA,AZ,230,HAYDEN,7,GILA,33.00479,-110.78538
ARIZONA,AZ,232,HEBER,17,NAVAJO,34.41414,-110.56956
ARIZONA,AZ,233,HEREFORD,3,COCHISE,31.43843,-110.09786
ARIZONA,AZ,235,HIGLEY,13,MARICOPA,33.30727,-111.72097
ARIZONA,AZ,237,HILLSIDE,25,YAVAPAI,34.41836,-112.91713
ARIZONA,AZ,240,HOLBROOK,17,NAVAJO,34.93581,-110.14207
ARIZONA,AZ,242,HOTEVILLA,17,NAVAJO,35.92778,-110.67292
ARIZONA,AZ,243,HOUCK,1,APACHE,35.28308,-109.20704
ARIZONA,AZ,241,HUACHUCA CITY,3,COCHISE,31.62787,-110.33397
ARIZONA,AZ,244,HUMBOLDT,25,YAVAPAI,34.53,-112.24222
ARIZONA,AZ,238,INDIAN GARDENS,5,COCONINO,34.91391,-111.7271
ARIZONA,AZ,245,INDIAN WELLS,17,NAVAJO,35.40557,-110.08485
ARIZONA,AZ,246,INSCRIPTION HOUSE,5,COCONINO,36.63248,-110.83515
ARIZONA,AZ,247,INSPIRATION,7,GILA,33.41255,-110.88345
ARIZONA,AZ,248,JACOB LAKE,5,COCONINO,36.71332,-112.21629
ARIZONA,AZ,249,JEDDITO,17,NAVAJO,35.77445,-110.13679
ARIZONA,AZ,250,JEROME,25,YAVAPAI,34.74891,-112.11377
ARIZONA,AZ,252,JOSEPH CITY,17,NAVAJO,34.95586,-110.33401
ARIZONA,AZ,254,KAIBITO,5,COCONINO,36.59722,-111.07431
ARIZONA,AZ,253,KAYENTA,17,NAVAJO,36.72778,-110.25458
ARIZONA,AZ,255,KEAMS CANYON,17,NAVAJO,35.81251,-110.19513
ARIZONA,AZ,256,KEARNY,21,PINAL,33.05701,-110.91067
ARIZONA,AZ,259,KENDRICK PARK,5,COCONINO,35.42501,-111.75766
ARIZONA,AZ,260,KINGMAN,15,MOHAVE,35.70407,-113.7579
ARIZONA,AZ,261,KINLICHEE,1,APACHE,35.75612,-109.42566
ARIZONA,AZ,257,KIRKLAND,25,YAVAPAI,34.41753,-112.71212
ARIZONA,AZ,258,KLONDYKE,9,GRAHAM,32.83534,-110.33231
ARIZONA,AZ,265,KOHLS RANCH,7,GILA,34.32531,-111.0943
ARIZONA,AZ,333,KYKOTSMOVI,17,NAVAJO,35.87417,-110.62347
ARIZONA,AZ,251,KYKOTSMOVI VILLAGE,17,NAVAJO,35.87417,-110.62347
ARIZONA,AZ,268,LAKE HAVASU CITY,15,MOHAVE,35.70407,-113.7579
ARIZONA,AZ,271,LAKE MONTEZUMA,25,YAVAPAI,34.63224,-111.77793
ARIZONA,AZ,266,LAVEEN,13,MARICOPA,33.36282,-112.16932
ARIZONA,AZ,267,LEUPP,5,COCONINO,35.29807,-111.00625
ARIZONA,AZ,263,LITCHFIELD PARK,13,MARICOPA,33.49337,-112.35794
ARIZONA,AZ,269,LITTLEFIELD,15,MOHAVE,36.8872,-113.92969
ARIZONA,AZ,264,LOCHIEL,23,SANTA CRUZ,31.33566,-110.62397
ARIZONA,AZ,50,LOWELL,3,COCHISE,31.42788,-109.89369
ARIZONA,AZ,272,LUKACHUKAI,1,APACHE,36.41695,-109.22871
ARIZONA,AZ,274,LUKE AIR FORCE BASE,13,MARICOPA,33.53339,-112.37908
ARIZONA,AZ,275,LUKEVILLE,19,PIMA,31.88257,-112.81571
ARIZONA,AZ,273,LUPTON,1,APACHE,35.35391,-109.0537
ARIZONA,AZ,119,MAISH VAYA,19,PIMA,32.16701,-112.12736
ARIZONA,AZ,276,MAMMOTH,21,PINAL,32.72257,-110.64065
ARIZONA,AZ,278,MANY FARMS,1,APACHE,36.35278,-109.61789
ARIZONA,AZ,295,MARANA,19,PIMA,32.40618,-111.21742
ARIZONA,AZ,296,MARBLE CANYON,5,COCONINO,36.81323,-111.64177
ARIZONA,AZ,277,MARBLE CANYON,5,COCONINO,36.81323,-111.64177
ARIZONA,AZ,297,MARICOPA WELLS,21,PINAL,33.16199,-112.08403
ARIZONA,AZ,537,MARINE CORPS AIR STATION YUMA,27,YUMA,32.64168,-114.60965
ARIZONA,AZ,292,MARTINEZ LAKE,27,YUMA,32.9814,-114.47535
ARIZONA,AZ,298,MAVERICK,1,APACHE,33.74283,-109.54731
ARIZONA,AZ,299,MAYER,25,YAVAPAI,34.39781,-112.23627
ARIZONA,AZ,280,MCNARY,1,APACHE,34.07366,-109.85705
ARIZONA,AZ,285,MCNEAL,3,COCHISE,31.60121,-109.67007
ARIZONA,AZ,301,MEADVIEW,15,MOHAVE,36.00221,-114.06829
ARIZONA,AZ,290,MESA,13,MARICOPA,33.42227,-111.82264
ARIZONA,AZ,300,MIAMI,7,GILA,33.39922,-110.86872
ARIZONA,AZ,315,MOCCASIN,15,MOHAVE,36.90943,-112.75882
ARIZONA,AZ,316,MOENKOPI,5,COCONINO,36.1111,-111.22236
ARIZONA,AZ,318,MOHAVE VALLEY,15,MOHAVE,34.93306,-114.58885
ARIZONA,AZ,317,MONTHAN AFB,21,PINAL,32.16894,-110.88067
ARIZONA,AZ,320,MORENCI,11,GREENLEE,33.052,-109.328
ARIZONA,AZ,321,MORMON LAKE,5,COCONINO,34.94485,-111.45375
ARIZONA,AZ,322,MORRISTOWN,13,MARICOPA,33.8567,-112.62323
ARIZONA,AZ,323,MOUNT LEMMON,19,PIMA,32.44313,-110.78843
ARIZONA,AZ,324,MOUNT TRUMBULL,15,MOHAVE,36.40595,-113.12865
ARIZONA,AZ,319,MOUNTAINAIRE,5,COCONINO,35.08529,-111.66599
ARIZONA,AZ,314,MUNDS PARK,5,COCONINO,34.94557,-111.64016
ARIZONA,AZ,325,NACO,3,COCHISE,31.33538,-109.94813
ARIZONA,AZ,27,NAVAJO,13,MARICOPA,33.50269,-111.899
ARIZONA,AZ,326,NAZLINI,1,APACHE,35.8964,-109.44871
ARIZONA,AZ,341,NEW RIVER,13,MARICOPA,33.91587,-112.13599
ARIZONA,AZ,488,NOAH,27,YUMA,32.68477,-114.02216
ARIZONA,AZ,330,NOGALES,23,SANTA CRUZ,31.34038,-110.93425
ARIZONA,AZ,342,NORTH RIM,5,COCONINO,34.5003,-111.50098
ARIZONA,AZ,328,NUTRIOSO,1,APACHE,33.95311,-109.20925
ARIZONA,AZ,329,OAK CREEK,25,YAVAPAI,34.84863,-111.78904
ARIZONA,AZ,331,OATMAN,15,MOHAVE,35.02639,-114.38357
ARIZONA,AZ,332,ORACLE,21,PINAL,32.61091,-110.77093
ARIZONA,AZ,337,ORACLE JUNCTION,21,PINAL,32.55507,-110.93344
ARIZONA,AZ,335,ORO VALLEY,19,PIMA,32.39091,-110.96649
ARIZONA,AZ,334,OVERGAARD,17,NAVAJO,34.41414,-110.56956
ARIZONA,AZ,336,PAGE,5,COCONINO,36.91472,-111.45583
ARIZONA,AZ,338,PALO VERDE,13,MARICOPA,33.3481,-112.67739
ARIZONA,AZ,339,PARADISE VALLEY,13,MARICOPA,33.53115,-111.94265
ARIZONA,AZ,340,PARKER,27,YUMA,34.15002,-114.28912
ARIZONA,AZ,350,PARKS,5,COCONINO,35.26057,-111.94877
ARIZONA,AZ,360,PATAGONIA,23,SANTA CRUZ,31.53954,-110.7562
ARIZONA,AZ,362,PAULDEN,25,YAVAPAI,34.88558,-112.46823
ARIZONA,AZ,365,PAYSON,7,GILA,34.23087,-111.32514
ARIZONA,AZ,366,PEACH SPRINGS,15,MOHAVE,35.52916,-113.42549
ARIZONA,AZ,367,PEARCE,3,COCHISE,31.90509,-109.82062
ARIZONA,AZ,368,PEORIA,13,MARICOPA,33.5806,-112.23738
ARIZONA,AZ,369,PERIDOT,7,GILA,33.31034,-110.45538
ARIZONA,AZ,372,PETRIFIED FRST NAT PK,17,NAVAJO,,
ARIZONA,AZ,370,PHOENIX,13,MARICOPA,33.44838,-112.07404
ARIZONA,AZ,375,PICACHO,21,PINAL,32.71618,-111.4954
ARIZONA,AZ,380,PIMA,9,GRAHAM,32.89656,-109.82835
ARIZONA,AZ,377,PINE,7,GILA,34.38447,-111.45514
ARIZONA,AZ,378,PINEDALE,17,NAVAJO,34.30754,-110.25151
ARIZONA,AZ,379,PINETOP,17,NAVAJO,34.14254,-109.96038
ARIZONA,AZ,262,PINETOP-LAKESIDE,17,NAVAJO,34.14254,-109.96038
ARIZONA,AZ,381,PINON,17,NAVAJO,36.10083,-110.22596
ARIZONA,AZ,384,PIRTLEVILLE,3,COCHISE,31.35716,-109.56352
ARIZONA,AZ,376,PLANTSITE,11,GREENLEE,33.04701,-109.31868
ARIZONA,AZ,382,POLACCA,17,NAVAJO,35.7934,-110.42064
ARIZONA,AZ,371,POMERENE,3,COCHISE,31.99953,-110.28618
ARIZONA,AZ,385,PORTAL,3,COCHISE,31.914,-109.14235
ARIZONA,AZ,383,POSTON,27,YUMA,33.05506,-111.40873
ARIZONA,AZ,386,PRESCOTT,25,YAVAPAI,34.54002,-112.4685
ARIZONA,AZ,373,PRESCOTT VALLEY,25,YAVAPAI,34.54002,-112.4685
ARIZONA,AZ,524,PUNKIN CENTER,7,GILA,33.87227,-111.31319
ARIZONA,AZ,387,QUARTZSITE,12,LA PAZ,33.66391,-114.22995
ARIZONA,AZ,388,QUEEN CREEK,13,MARICOPA,33.24866,-111.6343
ARIZONA,AZ,389,RANDOLPH,21,PINAL,32.91701,-111.51485
ARIZONA,AZ,391,RED LAKE,5,COCONINO,34.78699,-111.18358
ARIZONA,AZ,408,RED MESA,1,APACHE,36.99639,-109.369
ARIZONA,AZ,390,RED ROCK,1,APACHE,36.60445,-109.06065
ARIZONA,AZ,398,RILLITO,19,PIMA,32.41479,-111.15621
ARIZONA,AZ,394,RIMROCK,25,YAVAPAI,34.65058,-111.74571
ARIZONA,AZ,392,RIO RICO,23,SANTA CRUZ,31.47148,-110.97648
ARIZONA,AZ,393,RIVIERA,15,MOHAVE,35.10083,-114.62136
ARIZONA,AZ,396,ROCK POINT,1,APACHE,36.71806,-109.62594
ARIZONA,AZ,399,ROLL,27,YUMA,32.75171,-113.9891
ARIZONA,AZ,395,ROOSEVELT,7,GILA,33.66755,-111.13429
ARIZONA,AZ,403,ROUGH ROCK,1,APACHE,36.40722,-109.87289
ARIZONA,AZ,397,ROUND ROCK,1,APACHE,36.51306,-109.47344
ARIZONA,AZ,405,SACATON,21,PINAL,33.07672,-111.7393
ARIZONA,AZ,410,SAFFORD,9,GRAHAM,32.93266,-109.88745
ARIZONA,AZ,407,SAHUARITA,19,PIMA,31.95758,-110.95565
ARIZONA,AZ,401,SAINT DAVID,3,COCHISE,31.90425,-110.21424
ARIZONA,AZ,400,SAINT JOHNS,1,APACHE,34.51837,-109.37927
ARIZONA,AZ,402,SAINT MICHAELS,1,APACHE,35.64474,-109.09565
ARIZONA,AZ,413,SALOME,12,LA PAZ,33.78114,-113.61465
ARIZONA,AZ,416,SAN CARLOS,7,GILA,33.35477,-110.66852
ARIZONA,AZ,417,SAN LUIS,27,YUMA,32.487,-114.78218
ARIZONA,AZ,426,SAN MANUEL,21,PINAL,32.59979,-110.63093
ARIZONA,AZ,424,SAN SIMON,3,COCHISE,32.26786,-109.22756
ARIZONA,AZ,435,SAN TAN VALLEY,21,PINAL,33.1911,-111.528
ARIZONA,AZ,421,SAN XAVIER,19,PIMA,31.97369,-111.0951
ARIZONA,AZ,415,SANDERS,1,APACHE,35.21641,-109.33371
ARIZONA,AZ,228,SANTA ROSA,19,PIMA,32.32368,-112.04125
ARIZONA,AZ,418,SASABE,19,PIMA,31.4887,-111.54205
ARIZONA,AZ,422,SAWMILL,1,APACHE,35.90251,-109.16593
ARIZONA,AZ,420,SCOTTSDALE,13,MARICOPA,33.50921,-111.89903
ARIZONA,AZ,428,SEDONA,5,COCONINO,34.86974,-111.76099
ARIZONA,AZ,423,SELIGMAN,25,YAVAPAI,35.32556,-112.87741
ARIZONA,AZ,425,SELLS,19,PIMA,31.91202,-111.88123
ARIZONA,AZ,432,SHONTO,17,NAVAJO,36.59444,-110.64236
ARIZONA,AZ,429,SHOW LOW,17,NAVAJO,35.39955,-110.32142
ARIZONA,AZ,427,SHUNGOPAVI,17,NAVAJO,35.80556,-110.52791
ARIZONA,AZ,431,SIERRA VISTA,3,COCHISE,31.55454,-110.30369
ARIZONA,AZ,433,SILVER BELL,19,PIMA,32.3834,-111.50067
ARIZONA,AZ,434,SKULL VALLEY,25,YAVAPAI,34.5053,-112.68545
ARIZONA,AZ,430,SNOWFLAKE,17,NAVAJO,34.51337,-110.07845
ARIZONA,AZ,439,SOLOMON,9,GRAHAM,32.81257,-109.63397
ARIZONA,AZ,440,SOMERTON,27,YUMA,32.59644,-114.70968
ARIZONA,AZ,447,SONOITA,23,SANTA CRUZ,31.6795,-110.65674
ARIZONA,AZ,450,SONORA TOWN,13,MARICOPA,33.33533,-111.78958
ARIZONA,AZ,460,SOUTH TUCSON,19,PIMA,32.19952,-110.96842
ARIZONA,AZ,469,SPRING VALLEY,25,YAVAPAI,34.34503,-112.15905
ARIZONA,AZ,470,SPRINGERVILLE,1,APACHE,34.13113,-109.30816
ARIZONA,AZ,472,STANFIELD,21,PINAL,32.88255,-111.96208
ARIZONA,AZ,471,STARGO,11,GREENLEE,33.06784,-109.36007
ARIZONA,AZ,473,STEAMBOAT CANYON,1,APACHE,35.74806,-109.85067
ARIZONA,AZ,474,STRAWBERRY,7,GILA,34.40781,-111.49348
ARIZONA,AZ,475,SUN CITY,13,MARICOPA,33.59754,-112.27182
ARIZONA,AZ,476,SUN CITY WEST,13,MARICOPA,33.59754,-112.27182
ARIZONA,AZ,477,SUN LAKES,13,MARICOPA,33.21116,-111.87542
ARIZONA,AZ,480,SUN VALLEY,17,NAVAJO,34.98058,-110.05818
ARIZONA,AZ,485,SUPAI,5,COCONINO,36.23693,-112.68908
ARIZONA,AZ,487,SUPERIOR,21,PINAL,33.29395,-111.09623
ARIZONA,AZ,486,SURPRISE,13,MARICOPA,33.63059,-112.33322
ARIZONA,AZ,491,TANQUE VERDE,19,PIMA,32.25174,-110.73731
ARIZONA,AZ,489,TAYLOR,17,NAVAJO,34.45635,-110.11107
ARIZONA,AZ,495,TEEC NOS POS,1,APACHE,36.92111,-109.08566
ARIZONA,AZ,490,TEMPE,13,MARICOPA,33.41477,-111.90931
ARIZONA,AZ,497,TEMPLE BAR MARINA,15,MOHAVE,36.02582,-114.31914
ARIZONA,AZ,500,THATCHER,9,GRAHAM,32.84923,-109.75925
ARIZONA,AZ,510,TOLLESON,13,MARICOPA,33.45004,-112.25932
ARIZONA,AZ,520,TOMBSTONE,3,COCHISE,31.71287,-110.06758
ARIZONA,AZ,522,TONALEA,5,COCONINO,36.32249,-110.96348
ARIZONA,AZ,525,TONOPAH,13,MARICOPA,33.49365,-112.93712
ARIZONA,AZ,523,TOPAWA,19,PIMA,31.81397,-111.82568
ARIZONA,AZ,527,TOPOCK,15,MOHAVE,34.71834,-114.48718
ARIZONA,AZ,531,TORTILLA FLAT,13,MARICOPA,33.52644,-111.38985
ARIZONA,AZ,526,TRUXTON,15,MOHAVE,35.48499,-113.56355
ARIZONA,AZ,521,TSAILE,1,APACHE,36.3033,-109.21566
ARIZONA,AZ,528,TUBA CITY,5,COCONINO,36.13499,-111.23986
ARIZONA,AZ,529,TUBAC,23,SANTA CRUZ,31.61259,-111.04592
ARIZONA,AZ,530,TUCSON,19,PIMA,32.22174,-110.92648
ARIZONA,AZ,532,TUMACACORI,23,SANTA CRUZ,31.56237,-111.04947
ARIZONA,AZ,518,TUSAYAN,5,COCONINO,35.9736,-112.12656
ARIZONA,AZ,542,VAHKI,21,PINAL,,
ARIZONA,AZ,534,VAIL,19,PIMA,32.04786,-110.71203
ARIZONA,AZ,535,VALENTINE,15,MOHAVE,35.3875,-113.65772
ARIZONA,AZ,533,VALLEY FARMS,21,PINAL,32.9884,-111.44734
ARIZONA,AZ,536,VAYA CHIN,19,PIMA,32.34728,-112.32681
ARIZONA,AZ,538,VERNON,1,APACHE,34.25754,-109.69288
ARIZONA,AZ,539,WADDELL,13,MARICOPA,33.61143,-112.42711
ARIZONA,AZ,541,WAGONER,25,YAVAPAI,34.21364,-112.53573
ARIZONA,AZ,239,WALAPAI,15,MOHAVE,35.34444,-113.88411
ARIZONA,AZ,553,WELLTON,27,YUMA,32.67283,-114.14688
ARIZONA,AZ,555,WENDEN,12,LA PAZ,33.82253,-113.54159
ARIZONA,AZ,564,WHITE CONE,17,NAVAJO,35.54535,-110.12262
ARIZONA,AZ,566,WHITE MOUNTAIN LAKE,17,NAVAJO,34.34865,-109.99789
ARIZONA,AZ,565,WHITERIVER,17,NAVAJO,33.83699,-109.96427
ARIZONA,AZ,567,WHY,19,PIMA,32.26867,-112.73876
ARIZONA,AZ,570,WICKENBURG,13,MARICOPA,33.96864,-112.72962
ARIZONA,AZ,571,WIDE RUINS,1,APACHE,35.41946,-109.49649
ARIZONA,AZ,572,WIKIEUP,15,MOHAVE,34.70335,-113.61132
ARIZONA,AZ,562,WILHOIT,25,YAVAPAI,34.42586,-112.58684
ARIZONA,AZ,580,WILLCOX,3,COCHISE,32.25285,-109.83201
ARIZONA,AZ,590,WILLIAMS,5,COCONINO,35.24946,-112.191
ARIZONA,AZ,595,WILLIAMS AIR FORCE BASE (HISTORICAL),13,MARICOPA,33.30694,-111.66083
ARIZONA,AZ,543,WILLOW BEACH,15,MOHAVE,35.87026,-114.65942
ARIZONA,AZ,597,WINDOW ROCK,1,APACHE,35.6536,-109.06609
ARIZONA,AZ,600,WINKELMAN,7,GILA,32.98757,-110.77094
ARIZONA,AZ,607,WINONA,5,COCONINO,35.20501,-111.40821
ARIZONA,AZ,610,WINSLOW,17,NAVAJO,35.02169,-110.72291
ARIZONA,AZ,615,WITTMANN,13,MARICOPA,33.77642,-112.5285
ARIZONA,AZ,614,WOODRUFF,17,NAVAJO,34.78142,-110.04345
ARIZONA,AZ,616,YARNELL,25,YAVAPAI,34.22169,-112.7474
ARIZONA,AZ,617,YOUNG,7,GILA,34.10143,-110.96374
ARIZONA,AZ,618,YOUNGTOWN,13,MARICOPA,33.59393,-112.30294
ARIZONA,AZ,619,YUCCA,15,MOHAVE,34.87223,-114.1494
ARIZONA,AZ,620,YUMA,27,YUMA,32.72532,-114.6244
ARIZONA,AZ,622,YUMA PROVING GROUND,27,YUMA,32.86623,-114.39772
ARKANSAS,AR,5,ABBOTT,127,SCOTT,35.07343,-94.19382
ARKANSAS,AR,10,ADONA,105,PERRY,35.03814,-92.89795
ARKANSAS,AR,15,AGNOS,49,FULTON,36.27729,-91.69153
ARKANSAS,AR,18,ALCO,137,STONE,35.88757,-92.3671
ARKANSAS,AR,20,ALEXANDER,119,PULASKI,34.62954,-92.44127
ARKANSAS,AR,30,ALGOA,67,JACKSON,35.50592,-91.11679
ARKANSAS,AR,40,ALICIA,75,LAWRENCE,35.89313,-91.0829
ARKANSAS,AR,45,ALIX,47,FRANKLIN,35.42481,-93.73047
ARKANSAS,AR,47,ALLEENE,81,LITTLE RIVER,33.77012,-94.26048
ARKANSAS,AR,46,ALLISON,137,STONE,35.93674,-92.11737
ARKANSAS,AR,48,ALLPORT,85,LONOKE,34.54204,-91.78402
ARKANSAS,AR,50,ALMA,33,CRAWFORD,35.47787,-94.22188
ARKANSAS,AR,60,ALMYRA,1,ARKANSAS,34.40621,-91.40957
ARKANSAS,AR,70,ALPENA,9,BOONE,36.29479,-93.29213
ARKANSAS,AR,73,ALPINE,19,CLARK,34.22899,-93.37907
ARKANSAS,AR,80,ALTHEIMER,69,JEFFERSON,34.31926,-91.84736
ARKANSAS,AR,90,ALTUS,47,FRANKLIN,35.4462,-93.76242
ARKANSAS,AR,100,AMAGON,67,JACKSON,35.56202,-91.1104
ARKANSAS,AR,110,AMITY,19,CLARK,34.26482,-93.46102
ARKANSAS,AR,120,ANTOINE,109,PIKE,34.03622,-93.42073
ARKANSAS,AR,125,APPLETON,115,POPE,35.42536,-92.87433
ARKANSAS,AR,130,ARKADELPHIA,19,CLARK,34.12093,-93.05378
ARKANSAS,AR,140,ARKANSAS CITY,41,DESHA,33.60872,-91.20678
ARKANSAS,AR,152,ARMOREL,93,MISSISSIPPI,35.92007,-89.79814
ARKANSAS,AR,170,ASH FLAT,135,SHARP,36.22396,-91.60848
ARKANSAS,AR,160,ASHDOWN,81,LITTLE RIVER,33.67429,-94.13131
ARKANSAS,AR,180,ATHENS,61,HOWARD,34.31455,-93.97686
ARKANSAS,AR,190,ATKINS,115,POPE,35.24647,-92.93656
ARKANSAS,AR,192,AUBREY,77,LEE,34.71676,-90.90039
ARKANSAS,AR,200,AUGUSTA,147,WOODRUFF,35.28231,-91.36541
ARKANSAS,AR,210,AUSTIN,85,LONOKE,34.99842,-91.98376
ARKANSAS,AR,212,AVOCA,7,BENTON,36.40202,-94.07076
ARKANSAS,AR,215,BALCH,67,JACKSON,35.53175,-91.06568
ARKANSAS,AR,220,BALD KNOB,145,WHITE,35.30981,-91.56791
ARKANSAS,AR,230,BANKS,11,BRADLEY,33.57483,-92.26903
ARKANSAS,AR,232,BANNER,23,CLEBURNE,35.64174,-91.83153
ARKANSAS,AR,233,BARBER,83,LOGAN,35.12232,-94.09029
ARKANSAS,AR,235,BARLING,131,SEBASTIAN,35.32565,-94.3016
ARKANSAS,AR,234,BARTON,107,PHILLIPS,34.5476,-90.76817
ARKANSAS,AR,237,BASS,101,NEWTON,35.90424,-92.99795
ARKANSAS,AR,236,BASSETT,93,MISSISSIPPI,35.53647,-90.12676
ARKANSAS,AR,240,BATES,127,SCOTT,34.90816,-94.38688
ARKANSAS,AR,250,BATESVILLE,63,INDEPENDENCE,35.7698,-91.64097
ARKANSAS,AR,260,BAUXITE,125,SALINE,34.56454,-92.58683
ARKANSAS,AR,270,BAY,31,CRAIGHEAD,35.7423,-90.56233
ARKANSAS,AR,280,BEARDEN,103,OUACHITA,33.72455,-92.61571
ARKANSAS,AR,284,BEAVER,15,CARROLL,36.47368,-93.76742
ARKANSAS,AR,300,BEE BRANCH,141,VAN BUREN,35.45091,-92.3946
ARKANSAS,AR,290,BEEBE,145,WHITE,35.07064,-91.87959
ARKANSAS,AR,302,BEECH GROVE,55,GREENE,36.17229,-90.61928
ARKANSAS,AR,304,BEEDEVILLE,67,JACKSON,35.42897,-91.10985
ARKANSAS,AR,305,BEIRNE,19,CLARK,33.88872,-93.20406
ARKANSAS,AR,315,BELLA VISTA,7,BENTON,36.4807,-94.27134
ARKANSAS,AR,306,BELLEFONTE,9,BOONE,36.20091,-93.04851
ARKANSAS,AR,310,BELLEVILLE,149,YELL,35.09315,-93.44852
ARKANSAS,AR,318,BEN HUR,101,NEWTON,35.73036,-92.97295
ARKANSAS,AR,320,BEN LOMOND,133,SEVIER,33.8354,-94.11853
ARKANSAS,AR,330,BENTON,125,SALINE,34.56454,-92.58683
ARKANSAS,AR,340,BENTONVILLE,7,BENTON,36.37285,-94.20882
ARKANSAS,AR,342,BERGMAN,9,BOONE,36.31618,-93.00767
ARKANSAS,AR,350,BERRYVILLE,15,CARROLL,36.36479,-93.56797
ARKANSAS,AR,355,BETHEL HEIGHTS,7,BENTON,36.21424,-94.12937
ARKANSAS,AR,357,BEXAR,49,FULTON,36.28673,-91.99571
ARKANSAS,AR,370,BIG FLAT,5,BAXTER,36.00507,-92.40433
ARKANSAS,AR,375,BIG FORK,113,POLK,34.4865,-93.96992
ARKANSAS,AR,360,BIGELOW,105,PERRY,35.0012,-92.62988
ARKANSAS,AR,380,BIGGERS,121,RANDOLPH,36.33256,-90.80623
ARKANSAS,AR,386,BIRDEYE,37,CROSS,35.3787,-90.68733
ARKANSAS,AR,390,BIRTA,149,YELL,35.01731,-93.13351
ARKANSAS,AR,392,BISCOE,117,PRAIRIE,34.82093,-91.4043
ARKANSAS,AR,394,BISMARCK,59,HOT SPRING,34.3162,-93.17073
ARKANSAS,AR,396,BLACK FORK,127,SCOTT,34.71892,-94.43224
ARKANSAS,AR,400,BLACK OAK,31,CRAIGHEAD,35.83896,-90.36816
ARKANSAS,AR,410,BLACK ROCK,75,LAWRENCE,36.1084,-91.09735
ARKANSAS,AR,420,BLACK SPRINGS,97,MONTGOMERY,34.46121,-93.71269
ARKANSAS,AR,425,BLACKTON,95,MONROE,34.6676,-91.10429
ARKANSAS,AR,427,BLACKWELL,29,CONWAY,35.22231,-92.84128
ARKANSAS,AR,428,BLAKELY,51,GARLAND,34.69676,-93.06935
ARKANSAS,AR,430,BLEVINS,57,HEMPSTEAD,33.87178,-93.57712
ARKANSAS,AR,435,BLOOMER,131,SEBASTIAN,35.30587,-94.12048
ARKANSAS,AR,437,BLUE EYE,15,CARROLL,36.49784,-93.39796
ARKANSAS,AR,440,BLUE MOUNTAIN,83,LOGAN,35.13849,-93.71833
ARKANSAS,AR,442,BLUFF CITY,99,NEVADA,33.71844,-93.13406
ARKANSAS,AR,444,BLUFFTON,149,YELL,34.90537,-93.60075
ARKANSAS,AR,450,BLYTHEVILLE,93,MISSISSIPPI,35.9273,-89.91898
ARKANSAS,AR,454,BOARD CAMP,113,POLK,34.53788,-94.09548
ARKANSAS,AR,455,BODCAW,99,NEVADA,33.5354,-93.39462
ARKANSAS,AR,457,BOLES,127,SCOTT,34.77955,-94.0491
ARKANSAS,AR,460,BONANZA,131,SEBASTIAN,35.23926,-94.42605
ARKANSAS,AR,465,BONNERDALE,59,HOT SPRING,34.38482,-93.38185
ARKANSAS,AR,470,BONO,31,CRAIGHEAD,35.90868,-90.80262
ARKANSAS,AR,480,BOONEVILLE,83,LOGAN,35.14009,-93.92159
ARKANSAS,AR,485,BOSTON,87,MADISON,35.84063,-93.6013
ARKANSAS,AR,487,BOSWELL,65,IZARD,36.04035,-92.05571
ARKANSAS,AR,488,BOYDELL,3,ASHLEY,33.36567,-91.49123
ARKANSAS,AR,490,BRADFORD,145,WHITE,35.42314,-91.45596
ARKANSAS,AR,500,BRADLEY,73,LAFAYETTE,33.09819,-93.6549
ARKANSAS,AR,520,BRANCH,47,FRANKLIN,35.30565,-93.95354
ARKANSAS,AR,540,BRICKEYS,77,LEE,34.86065,-90.59233
ARKANSAS,AR,545,BRIGGSVILLE,149,YELL,34.93398,-93.49436
